name,countrycode,latitude,longitude,population,log_population,iso3,gdp_per_capita,econ_viability,city_name,store_count,comp_intensity,expansion_score
les Escaldes,AD,42.50729,1.53414,15853,9.671177113397102,AND,42414.0590092117,0.1072408273530665,,0,0,0.1072408273530665
Andorra la Vella,AD,42.50779,1.52109,20430,9.924808634239811,AND,42414.0590092117,0.110053272396629,,0,0,0.110053272396629
Umm Al Quwain City,AE,25.56473,55.55517,62747,11.046881983976132,ARE,49899.0652978649,0.1441129829874533,,0,0,0.1441129829874533
Ras Al Khaimah City,AE,25.78953,55.9432,351943,12.771227351014842,ARE,49899.0652978649,0.1666080684699452,,0,0,0.1666080684699452
Zayed City,AE,23.65416,53.70522,63482,11.05852743250288,ARE,49899.0652978649,0.1442649046181769,,0,0,0.1442649046181769
Khawr Fakkān,AE,25.33132,56.34199,40677,10.61344268474544,ARE,49899.0652978649,0.1384585159218385,,0,0,0.1384585159218385
Dubai,AE,25.07725,55.30927,3478300,15.06205451414245,ARE,49899.0652978649,0.1964932375580084,,0,0,0.1964932375580084
Dibba Al-Fujairah,AE,25.59246,56.26176,30000,10.308985993422082,ARE,49899.0652978649,0.1344867017899646,,0,0,0.1344867017899646
Dibba Al-Hisn,AE,25.61955,56.27291,26395,10.180967762503313,ARE,49899.0652978649,0.1328166297134057,,0,0,0.1328166297134057
Sharjah,AE,25.33737,55.41206,1274749,14.0582606389174,ARE,49899.0652978649,0.183398164226633,,0,0,0.183398164226633
Ar Ruways,AE,24.11028,52.73056,25000,10.12667110305036,ARE,49899.0652978649,0.1321082982972315,,0,0,0.1321082982972315
Al Fujairah City,AE,25.11641,56.34141,86512,11.368049970645048,ARE,49899.0652978649,0.1483028056601377,,0,0,0.1483028056601377
Al Ain City,AE,24.19167,55.76056,846747,13.649158408704984,ARE,49899.0652978649,0.1780611883425554,,0,0,0.1780611883425554
Ajman City,AE,25.40177,55.47878,490035,13.102234136775822,ARE,49899.0652978649,0.1709262439835696,,0,0,0.1709262439835696
Adh Dhayd,AE,25.28812,55.88157,20165,9.91175329695316,ARE,49899.0652978649,0.1293045708582389,,0,0,0.1293045708582389
Abu Dhabi,AE,24.45118,54.39696,1807000,14.407179122977643,ARE,49899.0652978649,0.1879500082338668,,0,0,0.1879500082338668
Khalifah A City,AE,24.42588,54.605,85374,11.354808596873092,ARE,49899.0652978649,0.1481300642589082,,0,0,0.1481300642589082
Bani Yas City,AE,24.30978,54.62944,80498,11.296000040969249,ARE,49899.0652978649,0.1473628725365036,,0,0,0.1473628725365036
Musaffah,AE,24.35893,54.48267,243341,12.40222314026057,ARE,49899.0652978649,0.1617941945076936,,0,0,0.1617941945076936
Al Shamkhah City,AE,24.39268,54.70779,61710,11.030217476012854,ARE,49899.0652978649,0.1438955848151826,,0,0,0.1438955848151826
Reef Al Fujairah City,AE,25.14479,56.24764,82310,11.318260035084968,ARE,49899.0652978649,0.1476532670711744,,0,0,0.1476532670711744
Zaranj,AF,30.95962,61.86037,49851,10.816813894946268,AFG,357.261152798144,0.0010103134524154,,0,0,0.0010103134524154
Bāzār-e Yakāwlang,AF,34.73525,66.97379,65000,11.082157933374816,AFG,357.261152798144,0.0010350971506602,,0,0,0.0010350971506602
Taloqan,AF,36.73605,69.53451,64256,11.070645946239251,AFG,357.261152798144,0.0010340219065467,,0,0,0.0010340219065467
Shīnḏanḏ,AF,33.30294,62.1474,29264,10.28414754172532,AFG,357.261152798144,0.0009605612807006,,0,0,0.0009605612807006
Shibirghān,AF,36.66757,65.7529,55641,10.92669359075441,AFG,357.261152798144,0.0010205764499949,,0,0,0.0010205764499949
Shahrak,AF,34.10737,64.3052,15967,9.678341998551245,AFG,357.261152798144,0.0009039777528928,,0,0,0.0009039777528928
Sar-e Pul,AF,36.21544,65.93249,52121,10.861342403487976,AFG,357.261152798144,0.0010144725099376,,0,0,0.0010144725099376
Sang-e Chārak,AF,35.84972,66.43694,15377,9.640693195592126,AFG,357.261152798144,0.0009004612745225,,0,0,0.0009004612745225
Aībak,AF,36.26468,68.01551,47823,10.77528288452372,AFG,357.261152798144,0.0010064343676008,,0,0,0.0010064343676008
Rustāq,AF,37.12604,69.83045,25636,10.151791899508838,AFG,357.261152798144,0.0009481989818635,,0,0,0.0009481989818635
Qarqīn,AF,37.41853,66.04358,15018,9.61707134520558,AFG,357.261152798144,0.0008982549433932,,0,0,0.0008982549433932
Qarāwul,AF,37.21959,68.7802,24544,10.108263446492153,AFG,357.261152798144,0.000944133331657,,0,0,0.000944133331657
Pul-e Khumrī,AF,35.94458,68.71512,56369,10.93969238107562,AFG,357.261152798144,0.0010217905646921,,0,0,0.0010217905646921
Paghmān,AF,34.58787,68.95091,49157,10.80279487936987,AFG,357.261152798144,0.0010090040465068,,0,0,0.0010090040465068
Nahrīn,AF,36.0649,69.13343,22363,10.015207802146536,AFG,357.261152798144,0.0009354417363113,,0,0,0.0009354417363113
Maymana,AF,35.92139,64.78361,75900,11.237185138527495,AFG,357.261152798144,0.0010495770217551,,0,0,0.0010495770217551
Mehtar Lām,AF,34.67139,70.20944,17345,9.7611172112444,AFG,357.261152798144,0.0009117091340299,,0,0,0.0009117091340299
Mazār-e Sharīf,AF,36.70904,67.11087,523300,13.167912103308216,AFG,357.261152798144,0.0012299110317884,,0,0,0.0012299110317884
Lashkar Gāh,AF,31.59382,64.37161,43934,10.690466547929944,AFG,357.261152798144,0.0009985123411448,,0,0,0.0009985123411448
Kushk,AF,33.29565,61.95221,16952,9.738200088297951,AFG,357.261152798144,0.0009095686259442,,0,0,0.0009095686259442
Kunduz,AF,36.72895,68.857,161902,11.994752669450811,AFG,357.261152798144,0.0011203354423989,,0,0,0.0011203354423989
Khōst,AF,33.33951,69.92041,96123,11.473394303632896,AFG,357.261152798144,0.0010716394607882,,0,0,0.0010716394607882
Khulm,AF,36.69736,67.69826,64933,11.081126648410208,AFG,357.261152798144,0.0010350008264484,,0,0,0.0010350008264484
Khāsh,AF,31.52919,62.79055,15133,9.624699147254466,AFG,357.261152798144,0.0008989673963481,,0,0,0.0008989673963481
Khanabad,AF,36.68304,69.11279,71531,11.177900181007926,AFG,357.261152798144,0.0010440396804742,,0,0,0.0010440396804742
Karukh,AF,34.48108,62.5863,17484,9.769098649497476,AFG,357.261152798144,0.0009124546173593,,0,0,0.0009124546173593
Kandahār,AF,31.61332,65.71013,523300,13.167912103308216,AFG,357.261152798144,0.0012299110317884,,0,0,0.0012299110317884
Kabul,AF,34.52813,69.17233,4434550,15.3049369284654,AFG,357.261152798144,0.0014295137012963,,0,0,0.0014295137012963
Jalālābād,AF,34.42647,70.45153,271900,12.513193308436527,AFG,357.261152798144,0.0011687589021102,,0,0,0.0011687589021102
Jabal os Saraj,AF,35.11833,69.23778,15032,9.618003063627834,AFG,357.261152798144,0.000898341967878,,0,0,0.000898341967878
Herāt,AF,34.34817,62.19967,574300,13.26090892810109,AFG,357.261152798144,0.0012385971332627,,0,0,0.0012385971332627
Ghormach,AF,35.73062,63.78264,30000,10.308985993422082,AFG,357.261152798144,0.0009628812449831,,0,0,0.0009628812449831
Ghazni,AF,33.55391,68.42096,141000,11.856522261533735,AFG,357.261152798144,0.001107424427935,,0,0,0.001107424427935
Gereshk,AF,31.82089,64.57005,43588,10.682560103927765,AFG,357.261152798144,0.0009977738624381,,0,0,0.0009977738624381
Gardez,AF,33.59744,69.22592,103601,11.548311913640486,AFG,357.261152798144,0.0010786369251015,,0,0,0.0010786369251015
Fayzabad,AF,37.11664,70.58002,44421,10.701490121198454,AFG,357.261152798144,0.000999541966363,,0,0,0.000999541966363
Farah,AF,32.37451,62.11638,43561,10.681940489675172,AFG,357.261152798144,0.0009977159891474,,0,0,0.0009977159891474
Eslam Qaleh,AF,34.66667,61.06667,18086,9.802948727157515,AFG,357.261152798144,0.0009156162866972,,0,0,0.0009156162866972
Charikar,AF,35.01361,69.17139,53676,10.890739883347626,AFG,357.261152798144,0.001017218297159,,0,0,0.001017218297159
Baraki Barak,AF,33.96744,68.9492,22305,10.012610979554482,AFG,357.261152798144,0.0009351991875512,,0,0,0.0009351991875512
Bāmyān,AF,34.82156,67.82734,61863,11.032693706288873,AFG,357.261152798144,0.0010304770865153,,0,0,0.0010304770865153
Balkh,AF,36.75635,66.8972,114883,11.65167820261739,AFG,357.261152798144,0.0010882915566126,,0,0,0.0010882915566126
Baghlān,AF,36.13068,68.70829,108449,11.59404451625502,AFG,357.261152798144,0.0010829084475742,,0,0,0.0010829084475742
Ārt Khwājah,AF,37.08571,69.47958,18623,9.832206350531164,AFG,357.261152798144,0.000918349011025,,0,0,0.000918349011025
Āsmār,AF,35.03333,71.35809,15708,9.66198907549994,AFG,357.261152798144,0.0009024503550559,,0,0,0.0009024503550559
Asadābād,AF,34.87311,71.14697,48400,10.78727575364831,AFG,357.261152798144,0.0010075545271161,,0,0,0.0010075545271161
Andkhōy,AF,36.95293,65.12376,29208,10.282232159944682,AFG,357.261152798144,0.0009603823799635,,0,0,0.0009603823799635
Bāzārak,AF,35.31292,69.51519,65000,11.082157933374816,AFG,357.261152798144,0.0010350971506602,,0,0,0.0010350971506602
Markaz-e Woluswalī-ye Āchīn,AF,34.12583,70.70778,15098,9.62238379544447,AFG,357.261152798144,0.0008987511375585,,0,0,0.0008987511375585
Saint John’s,AG,17.12096,-61.84329,24226,10.095222992690658,ATG,20117.7653310355,0.0530965908185557,,0,0,0.0530965908185557
Sarandë,AL,39.87534,20.00477,15147,9.625623789021686,ALB,6846.42614266044,0.0172291476891379,,0,0,0.0172291476891379
Pogradec,AL,40.9025,20.6525,61530,11.027296391837153,ALB,6846.42614266044,0.0197380369637499,,0,0,0.0197380369637499
Kukës,AL,42.07694,20.42194,17832,9.788805952452512,ALB,6846.42614266044,0.0175212315743599,,0,0,0.0175212315743599
Korçë,AL,40.61861,20.78083,58259,10.972671030513425,ALB,6846.42614266044,0.0196402616466953,,0,0,0.0196402616466953
Gjirokastër,AL,40.07583,20.13889,23437,10.062113915818548,ALB,6846.42614266044,0.0180104324166806,,0,0,0.0180104324166806
Elbasan,AL,41.1125,20.08222,100903,11.521924848767028,ALB,6846.42614266044,0.0206233849601483,,0,0,0.0206233849601483
Burrel,AL,41.61028,20.00889,15405,9.64251232291291,ALB,6846.42614266044,0.0172593769034769,,0,0,0.0172593769034769
Vlorë,AL,40.4686,19.48318,89546,11.40251890609017,ALB,6846.42614266044,0.0204096572406329,,0,0,0.0204096572406329
Tirana,AL,41.3275,19.81889,418495,12.944422610920949,ALB,6846.42614266044,0.0231695497146415,,0,0,0.0231695497146415
Shkodër,AL,42.06828,19.51258,88245,11.387883647989264,ALB,6846.42614266044,0.0203834612216719,,0,0,0.0203834612216719
Patos Fshat,AL,40.64278,19.65083,22679,10.02923875784169,ALB,6846.42614266044,0.0179515883391951,,0,0,0.0179515883391951
Patos,AL,40.68333,19.61944,16000,9.680406499268877,ALB,6846.42614266044,0.0173272046490138,,0,0,0.0173272046490138
Lushnjë,AL,40.94194,19.705,41469,10.632725553240428,ALB,6846.42614266044,0.0190317846313282,,0,0,0.0190317846313282
Lezhë,AL,41.78361,19.64361,18695,9.836064876218694,ALB,6846.42614266044,0.0176058215183515,,0,0,0.0176058215183515
Laç,AL,41.63556,19.71306,24825,10.119646770075892,ALB,6846.42614266044,0.0181134119289391,,0,0,0.0181134119289391
Krujë,AL,41.50917,19.79278,21286,9.965851836732678,ALB,6846.42614266044,0.0178381304844852,,0,0,0.0178381304844852
Kavajë,AL,41.18556,19.55694,29354,10.287218168498288,ALB,6846.42614266044,0.0184133522169844,,0,0,0.0184133522169844
Fier-Çifçi,AL,40.71667,19.56667,60995,11.018563567234905,ALB,6846.42614266044,0.019722405859926,,0,0,0.019722405859926
Fier,AL,40.72389,19.55611,56297,10.938414289518104,ALB,6846.42614266044,0.0195789446387909,,0,0,0.0195789446387909
Durrës,AL,41.32355,19.45469,122034,11.712063167817591,ALB,6846.42614266044,0.0209637183506993,,0,0,0.0209637183506993
Berat,AL,40.70583,19.95222,46866,10.755069082040832,ALB,6846.42614266044,0.01925077041061,,0,0,0.01925077041061
Kapan,AM,39.20755,46.40576,33160,10.409129765609965,ARM,6571.97445545099,0.0178846840445736,,0,0,0.0178846840445736
Goris,AM,39.51111,46.34168,20379,9.922309306776716,ARM,6571.97445545099,0.0170482423545649,,0,0,0.0170482423545649
Hats’avan,AM,39.46405,45.97047,15208,9.629642636872369,ARM,6571.97445545099,0.0165453904313513,,0,0,0.0165453904313513
Artashat,AM,39.96144,44.54447,20562,9.93124862332152,ARM,6571.97445545099,0.0170636016454545,,0,0,0.0170636016454545
Ararat,AM,39.83069,44.70569,28832,10.269275843491394,ARM,6571.97445545099,0.0176443908341125,,0,0,0.0176443908341125
Yerevan,AM,40.18111,44.51361,1093485,13.904881316090618,ARM,6571.97445545099,0.0238909894117362,,0,0,0.0238909894117362
Vagharshapat,AM,40.16557,44.29462,46200,10.740756721857226,ARM,6571.97445545099,0.018454476473595,,0,0,0.018454476473595
Stepanavan,AM,41.00995,44.38531,23782,10.076726318721697,ARM,6571.97445545099,0.0173135574704228,,0,0,0.0173135574704228
Spitak,AM,40.83221,44.26731,15059,9.619797501353885,ARM,6571.97445545099,0.0165284747869037,,0,0,0.0165284747869037
Sevan,AM,40.5473,44.94171,17083,9.745897631961356,ARM,6571.97445545099,0.0167451366063523,,0,0,0.0167451366063523
Masis,AM,40.06572,44.41913,18911,9.847551920205824,ARM,6571.97445545099,0.0169197962434178,,0,0,0.0169197962434178
Vanadzor,AM,40.80456,44.4939,101098,11.52385551376281,ARM,6571.97445545099,0.0197999755483775,,0,0,0.0197999755483775
Gavar,AM,40.35398,45.12386,21680,9.98419157995109,ARM,6571.97445545099,0.0171545667955705,,0,0,0.0171545667955705
Hrazdan,AM,40.49748,44.7662,40795,10.616339316370407,ARM,6571.97445545099,0.0182407058667448,,0,0,0.0182407058667448
Armavir,AM,40.15446,44.03815,25963,10.16446624215336,ARM,6571.97445545099,0.01746430982379,,0,0,0.01746430982379
Gyumri,AM,40.7942,43.84528,148381,11.90754530855819,ARM,6571.97445545099,0.0204592209325319,,0,0,0.0204592209325319
Ch’arents’avan,AM,40.40289,44.64447,18500,9.825580063659602,ARM,6571.97445545099,0.0168820447962699,,0,0,0.0168820447962699
Ashtarak,AM,40.2991,44.36204,18779,9.840547752762252,ARM,6571.97445545099,0.0169077618731539,,0,0,0.0169077618731539
Abovyan,AM,40.27368,44.63348,35673,10.482177411118249,ARM,6571.97445545099,0.0180101925250647,,0,0,0.0180101925250647
Saurimo,AO,-9.66078,20.39155,40498,10.60903256143177,AGO,2929.69445467272,0.0081258554822646,,0,0,0.0081258554822646
Lucapa,AO,-8.41915,20.74466,20115,9.909270797291857,AGO,2929.69445467272,0.0075898817321145,,0,0,0.0075898817321145
Luau,AO,-10.70727,22.22466,18465,9.823686482332572,AGO,2929.69445467272,0.0075243294990639,,0,0,0.0075243294990639
Uíge,AO,-7.60874,15.06131,60008,11.002249829955362,AGO,2929.69445467272,0.0084270353192245,,0,0,0.0084270353192245
Soio,AO,-6.1349,12.36894,67491,11.119764351318228,AGO,2929.69445467272,0.0085170440935526,,0,0,0.0085170440935526
N'zeto,AO,-7.23116,12.8666,18352,9.817548327858471,AGO,2929.69445467272,0.0075196280566001,,0,0,0.0075196280566001
N’dalatando,AO,-9.29782,14.91162,383100,12.856053940969854,AGO,2929.69445467272,0.0098469333364381,,0,0,0.0098469333364381
Mbanza Kongo,AO,-6.26667,14.23833,24220,10.094975304446326,AGO,2929.69445467272,0.0077321197711444,,0,0,0.0077321197711444
Malanje,AO,-9.54015,16.34096,87046,11.374203481650149,AGO,2929.69445467272,0.0087119285554617,,0,0,0.0087119285554617
Luanda,AO,-8.83682,13.23432,2776168,14.83658247771832,AGO,2929.69445467272,0.011363894338766,,0,0,0.011363894338766
Caxito,AO,-8.57848,13.66425,28224,10.247963389017864,AGO,2929.69445467272,0.0078492990764711,,0,0,0.0078492990764711
Cabinda,AO,-5.56717,12.19787,66020,11.097728152217645,AGO,2929.69445467272,0.008500165743125,,0,0,0.008500165743125
Sumbe,AO,-11.20605,13.84371,33277,10.412651796975451,AGO,2929.69445467272,0.0079754400978054,,0,0,0.0079754400978054
Moçâmedes,AO,-15.19611,12.15222,80149,11.2916551580377,AGO,2929.69445467272,0.0086487017019202,,0,0,0.0086487017019202
Menongue,AO,-14.6585,17.69099,32203,10.379845947419872,AGO,2929.69445467272,0.0079503128686336,,0,0,0.0079503128686336
Luena,AO,-11.78333,19.91667,21115,9.957786325943507,AGO,2929.69445467272,0.0076270415930336,,0,0,0.0076270415930336
Lubango,AO,-14.91717,13.4925,102541,11.538027749731055,AGO,2929.69445467272,0.0088374076996914,,0,0,0.0088374076996914
Longonjo,AO,-12.90795,15.24845,24346,10.100163917635166,AGO,2929.69445467272,0.0077360939243654,,0,0,0.0077360939243654
Lobito,AO,-12.3644,13.53601,207932,12.244971191408537,AGO,2929.69445467272,0.0093788821657129,,0,0,0.0093788821657129
Cuito,AO,-12.38333,16.93333,113624,11.64065883147978,AGO,2929.69445467272,0.0089160166900446,,0,0,0.0089160166900446
Huambo,AO,-12.77611,15.73917,226145,12.32893608737393,AGO,2929.69445467272,0.0094431940250881,,0,0,0.0094431940250881
Catumbela,AO,-12.43002,13.54677,16977,9.739673667297913,AGO,2929.69445467272,0.0074599809366784,,0,0,0.0074599809366784
Catabola,AO,-12.15,17.28333,18855,9.844586444615969,AGO,2929.69445467272,0.0075403375631467,,0,0,0.0075403375631467
Camacupa,AO,-12.01667,17.48333,19150,9.86011021256656,AGO,2929.69445467272,0.007552227798583,,0,0,0.007552227798583
Caála,AO,-12.8525,15.56056,21205,9.962039439485745,AGO,2929.69445467272,0.0076302992120289,,0,0,0.0076302992120289
Benguela,AO,-12.57626,13.40547,151226,11.92653729821416,AGO,2929.69445467272,0.0091349817175081,,0,0,0.0091349817175081
Zárate,AR,-34.09814,-59.02858,99061,11.503501195722388,ARG,13935.6811110049,0.0419111159333448,,0,0,0.0419111159333448
Wanda,AR,-25.96879,-54.56285,15529,9.650528916142733,ARG,13935.6811110049,0.0351601159804248,,0,0,0.0351601159804248
Villa Ortúzar,AR,-34.57973,-58.46829,22500,10.021315031649332,ARG,13935.6811110049,0.0365110142512269,,0,0,0.0365110142512269
Villa Ocampo,AR,-28.48752,-59.35515,19101,9.857548320594685,ARG,13935.6811110049,0.0359143571555954,,0,0,0.0359143571555954
Villa Lugano,AR,-34.67907,-58.47263,114000,11.643962499267984,ARG,13935.6811110049,0.0424228636071085,,0,0,0.0424228636071085
Villaguay,AR,-31.8653,-59.02689,32027,10.374365799192525,ARG,13935.6811110049,0.0377972966966412,,0,0,0.0377972966966412
Villa Gesell,AR,-37.26394,-56.97304,23257,10.05440443785299,ARG,13935.6811110049,0.0366315700642765,,0,0,0.0366315700642765
Villa de Mayo,AR,-34.5108,-58.68059,43405,10.67835295938093,ARG,13935.6811110049,0.0389048239525728,,0,0,0.0389048239525728
Tortuguitas,AR,-34.47513,-58.75367,41390,10.630818744876144,ARG,13935.6811110049,0.0387316408545738,,0,0,0.0387316408545738
Tigre,AR,-34.42603,-58.57962,31106,10.345188153226388,ARG,13935.6811110049,0.0376909927390944,,0,0,0.0376909927390944
Tandil,AR,-37.32167,-59.13316,115877,11.660293192500657,ARG,13935.6811110049,0.0424823618038488,,0,0,0.0424823618038488
San Vicente,AR,-26.61667,-54.13333,38247,10.55184655030594,ARG,13935.6811110049,0.0384439186432375,,0,0,0.0384439186432375
Santo Tomé,AR,-28.54939,-56.04077,22634,10.02725265987006,ARG,13935.6811110049,0.0365326470237623,,0,0,0.0365326470237623
Santos Lugares,AR,-34.60379,-58.5461,37267,10.525890328570316,ARG,13935.6811110049,0.0383493514154132,,0,0,0.0383493514154132
Santa Elena,AR,-30.94432,-59.78832,18410,9.820703591057208,ARG,13935.6811110049,0.0357801194391902,,0,0,0.0357801194391902
San Pedro,AR,-33.67918,-59.66633,47452,10.767495026486278,ARG,13935.6811110049,0.0392295984230079,,0,0,0.0392295984230079
San Pedro,AR,-26.62207,-54.10842,23736,10.074790291180951,ARG,13935.6811110049,0.0367058425703328,,0,0,0.0367058425703328
San Luis del Palmar,AR,-27.5079,-58.55454,15347,9.638740451366845,ARG,13935.6811110049,0.0351171666465227,,0,0,0.0351171666465227
San Lorenzo,AR,-28.13306,-58.76733,47626,10.771155106297904,ARG,13935.6811110049,0.0392429333222442,,0,0,0.0392429333222442
San Javier,AR,-30.57781,-59.9317,15606,9.655474810542554,ARG,13935.6811110049,0.0351781355337815,,0,0,0.0351781355337815
San Isidro,AR,-34.4721,-58.52708,45190,10.718653230950045,ARG,13935.6811110049,0.03905165136843,,0,0,0.03905165136843
Saladas,AR,-28.25384,-58.62591,18349,9.817384853482716,ARG,13935.6811110049,0.0357680281642931,,0,0,0.0357680281642931
Retiro,AR,-34.58333,-58.38333,38635,10.561939763299186,ARG,13935.6811110049,0.0384806916058949,,0,0,0.0384806916058949
Resistencia,AR,-27.46056,-58.98389,290793,12.580370391691368,ARG,13935.6811110049,0.045834511858586,,0,0,0.045834511858586
Reconquista,AR,-29.15,-59.65,90184,11.4096183951043,ARG,13935.6811110049,0.0415690693795256,,0,0,0.0415690693795256
Quilmes,AR,-34.72904,-58.26374,262379,12.47754911363502,ARG,13935.6811110049,0.0454598994313158,,0,0,0.0454598994313158
Puerto Rico,AR,-26.79598,-55.02402,17491,9.76949891253281,ARG,13935.6811110049,0.0355935636087997,,0,0,0.0355935636087997
Puerto Iguazú,AR,-25.59912,-54.57355,32038,10.374709189708955,ARG,13935.6811110049,0.0377985477835494,,0,0,0.0377985477835494
Puerto Esperanza,AR,-26.02267,-54.61356,15579,9.65374331942474,ARG,13935.6811110049,0.0351718271304753,,0,0,0.0351718271304753
Puerto Eldorado,AR,-26.40843,-54.69463,54189,10.90025166856016,ARG,13935.6811110049,0.0397132754290092,,0,0,0.0397132754290092
Posadas,AR,-27.36708,-55.89608,305874,12.630931800744971,ARG,13935.6811110049,0.046018724042385,,0,0,0.046018724042385
Pontevedra,AR,-34.74785,-58.70072,33515,10.419778215733176,ARG,13935.6811110049,0.0379627493724888,,0,0,0.0379627493724888
Pirané,AR,-25.73239,-59.10879,19124,9.858751658694736,ARG,13935.6811110049,0.0359187413201867,,0,0,0.0359187413201867
Pilar,AR,-34.45866,-58.9142,81120,11.303697146165202,ARG,13935.6811110049,0.0411831627178441,,0,0,0.0411831627178441
Paso de los Libres,AR,-29.71251,-57.08771,43805,10.687526073284142,ARG,13935.6811110049,0.0389382446854198,,0,0,0.0389382446854198
Oberá,AR,-27.48706,-55.11994,56528,10.9425090597906,ARG,13935.6811110049,0.0398672332886875,,0,0,0.0398672332886875
Necochea,AR,-38.5545,-58.73961,73557,11.205829489659132,ARG,13935.6811110049,0.0408265979965333,,0,0,0.0408265979965333
Muñiz,AR,-34.55622,-58.70739,26827,10.197201397219628,ARG,13935.6811110049,0.0371518273161443,,0,0,0.0371518273161443
Morón,AR,-34.6509,-58.61956,122642,11.71703297508604,ARG,13935.6811110049,0.0426890838761561,,0,0,0.0426890838761561
Monte Caseros,AR,-30.25359,-57.63626,24671,10.113424276363055,ARG,13935.6811110049,0.0368465991456037,,0,0,0.0368465991456037
Montecarlo,AR,-26.5662,-54.757,22229,10.009198006958242,ARG,13935.6811110049,0.0364668678632747,,0,0,0.0364668678632747
Merlo,AR,-34.66627,-58.72927,268961,12.502325384664765,ARG,13935.6811110049,0.0455501677026757,,0,0,0.0455501677026757
Mercedes,AR,-34.65145,-59.43068,63284,11.055403613226549,ARG,13935.6811110049,0.0402785460391966,,0,0,0.0402785460391966
Mercedes,AR,-29.18416,-58.07519,30649,10.330387941364355,ARG,13935.6811110049,0.0376370705996837,,0,0,0.0376370705996837
Mar del Plata,AR,-38.00042,-57.5562,593337,13.293519498737767,ARG,13935.6811110049,0.0484327534195376,,0,0,0.0484327534195376
Luján,AR,-34.57028,-59.105,97363,11.486211811451804,ARG,13935.6811110049,0.0418481249033747,,0,0,0.0418481249033747
Los Polvorines,AR,-34.50316,-58.70596,53354,10.884722973050666,ARG,13935.6811110049,0.0396566991791598,,0,0,0.0396566991791598
La Plata,AR,-34.92145,-57.95453,195443,12.18302917236156,ARG,13935.6811110049,0.0443868644315034,,0,0,0.0443868644315034
La Paz,AR,-30.74179,-59.64517,24716,10.1152465449837,ARG,13935.6811110049,0.0368532382818216,,0,0,0.0368532382818216
Jardín América,AR,-27.04346,-55.22698,24905,10.122864017281094,ARG,13935.6811110049,0.0368809912901574,,0,0,0.0368809912901574
Hurlingham,AR,-34.5904,-58.62904,60000,11.002116507732016,ARG,13935.6811110049,0.0400844032284005,,0,0,0.0400844032284005
Gualeguaychú,AR,-33.00937,-58.51722,78676,11.273106142645403,ARG,13935.6811110049,0.0410717094243448,,0,0,0.0410717094243448
Gualeguay,AR,-33.14156,-59.30966,33120,10.407922801280105,ARG,13935.6811110049,0.0379195561184414,,0,0,0.0379195561184414
Goya,AR,-29.13995,-59.26343,70245,11.159758646073096,ARG,13935.6811110049,0.0406587464499625,,0,0,0.0406587464499625
Gobernador Virasora,AR,-28.05,-56.03333,28756,10.266636494850344,ARG,13935.6811110049,0.0374048026822638,,0,0,0.0374048026822638
General Pacheco,AR,-34.45256,-58.64312,43287,10.675630739322571,ARG,13935.6811110049,0.0388949059912042,,0,0,0.0388949059912042
General José de San Martín,AR,-26.53743,-59.34158,31758,10.365931428719277,ARG,13935.6811110049,0.0377665674540641,,0,0,0.0377665674540641
Garupá,AR,-27.48171,-55.82921,28814,10.268651363870768,ARG,13935.6811110049,0.0374121435263832,,0,0,0.0374121435263832
Formosa,AR,-26.18489,-58.17313,222226,12.311454660956878,ARG,13935.6811110049,0.0448547615916581,,0,0,0.0448547615916581
Fontana,AR,-27.41813,-59.02392,26745,10.194140208432742,ARG,13935.6811110049,0.037140674377925,,0,0,0.037140674377925
Federal,AR,-30.95465,-58.78326,16333,9.70100410391822,ARG,13935.6811110049,0.035344014031168,,0,0,0.035344014031168
Esquina,AR,-30.01476,-59.5289,26399,10.181119289134408,ARG,13935.6811110049,0.0370932347985321,,0,0,0.0370932347985321
El Soberbio,AR,-27.29847,-54.19877,19571,9.881855252409014,ARG,13935.6811110049,0.0360029154666627,,0,0,0.0360029154666627
Don Torcuato,AR,-34.49459,-58.62729,71356,11.175450726011428,ARG,13935.6811110049,0.0407159179641251,,0,0,0.0407159179641251
Dolores,AR,-36.31321,-57.67918,25190,10.134242066851671,ARG,13935.6811110049,0.0369224453437133,,0,0,0.0369224453437133
Curuzú Cuatiá,AR,-29.79171,-58.0546,36390,10.50207677030558,ARG,13935.6811110049,0.0382625906297847,,0,0,0.0382625906297847
Corrientes,AR,-27.46784,-58.8344,346334,12.755161793721214,ARG,13935.6811110049,0.0464713356038079,,0,0,0.0464713356038079
Concordia,AR,-31.39296,-58.02089,145210,11.88594313607913,ARG,13935.6811110049,0.0433044802862798,,0,0,0.0433044802862798
Concepción del Uruguay,AR,-32.48463,-58.23217,67895,11.125732401649511,ARG,13935.6811110049,0.0405347774208339,,0,0,0.0405347774208339
Colegiales,AR,-34.57365,-58.44924,57000,10.950824090522444,ARG,13935.6811110049,0.039897527736531,,0,0,0.039897527736531
Chajarí,AR,-30.75048,-57.97962,30655,10.330583680770587,ARG,13935.6811110049,0.0376377837440392,,0,0,0.0376377837440392
Campana,AR,-34.16327,-58.95919,86860,11.372064418801726,ARG,13935.6811110049,0.041432247639101,,0,0,0.041432247639101
Buenos Aires,AR,-34.61315,-58.37723,2891082,14.877141730375364,ARG,13935.6811110049,0.0542024207421668,,0,0,0.0542024207421668
Boedo,AR,-34.63333,-58.41667,48231,10.78377798016924,ARG,13935.6811110049,0.0392889226885452,,0,0,0.0392889226885452
Berazategui,AR,-34.76531,-58.21278,180523,12.103619011905066,ARG,13935.6811110049,0.0440975465634429,,0,0,0.0440975465634429
Bella Vista,AR,-34.5651,-58.69034,79737,11.286501539105876,ARG,13935.6811110049,0.0411205133497303,,0,0,0.0411205133497303
Belgrano,AR,-34.5627,-58.45829,138942,11.84181905606789,ARG,13935.6811110049,0.0431437214528308,,0,0,0.0431437214528308
Barranqueras,AR,-27.48132,-58.93925,50823,10.836123962946369,ARG,13935.6811110049,0.0394796366733999,,0,0,0.0394796366733999
Barracas,AR,-34.64966,-58.38341,77474,11.25771058265595,ARG,13935.6811110049,0.041015618231881,,0,0,0.041015618231881
Balcarce,AR,-37.84616,-58.25522,38823,10.566793891085052,ARG,13935.6811110049,0.0384983768226761,,0,0,0.0384983768226761
Azul,AR,-36.77698,-59.85854,53941,10.895664674241416,ARG,13935.6811110049,0.0396965634691104,,0,0,0.0396965634691104
Avellaneda,AR,-29.11761,-59.65834,23341,10.0580095919723,ARG,13935.6811110049,0.0366447048507803,,0,0,0.0366447048507803
Aristóbulo del Valle,AR,-27.09625,-54.89626,20683,9.937115733516112,ARG,13935.6811110049,0.0362042479471664,,0,0,0.0362042479471664
Zapala,AR,-38.89916,-70.05442,31534,10.35885331909775,ARG,13935.6811110049,0.0377407795249902,,0,0,0.0377407795249902
Yerba Buena,AR,-26.81667,-65.31667,50783,10.835336623326135,ARG,13935.6811110049,0.0394767681308978,,0,0,0.0394767681308978
Villa Regina,AR,-39.1,-67.06667,31209,10.348493835264826,ARG,13935.6811110049,0.0377030364482917,,0,0,0.0377030364482917
Villa Paula de Sarmiento,AR,-31.4933,-68.53838,19092,9.857077054713464,ARG,13935.6811110049,0.0359126401758127,,0,0,0.0359126401758127
Villa Nueva,AR,-32.43293,-63.24763,16841,9.731631045589936,ARG,13935.6811110049,0.0354555982594171,,0,0,0.0354555982594171
Villa María,AR,-32.40751,-63.24016,92453,11.434466502509908,ARG,13935.6811110049,0.0416595993749142,,0,0,0.0416595993749142
Villa Dolores,AR,-31.94585,-65.18958,28009,10.240316868254157,ARG,13935.6811110049,0.0373089114485579,,0,0,0.0373089114485579
Villa Constitución,AR,-33.22778,-60.3297,44271,10.698107702026707,ARG,13935.6811110049,0.0389767971105856,,0,0,0.0389767971105856
Villa Carlos Paz,AR,-31.42414,-64.49778,69451,11.148391145464029,ARG,13935.6811110049,0.040617330829814,,0,0,0.040617330829814
Villa Ángela,AR,-27.57383,-60.71526,43511,10.680792041102796,ARG,13935.6811110049,0.0389137103459479,,0,0,0.0389137103459479
Villa Allende,AR,-31.29458,-64.29538,21683,9.98432994038023,ARG,13935.6811110049,0.0363762651499219,,0,0,0.0363762651499219
Viedma,AR,-40.81345,-62.99668,48940,10.7983707699714,ARG,13935.6811110049,0.0393420891197719,,0,0,0.0393420891197719
Victoria,AR,-32.61841,-60.15478,25139,10.132215482144238,ARG,13935.6811110049,0.0369150618154138,,0,0,0.0369150618154138
Vera,AR,-29.4593,-60.21261,19797,9.893336201479752,ARG,13935.6811110049,0.0360447444176353,,0,0,0.0360447444176353
Venado Tuerto,AR,-33.74556,-61.96885,72340,11.189146329021272,ARG,13935.6811110049,0.0407658156427324,,0,0,0.0407658156427324
Veinticinco de Mayo,AR,-35.4323,-60.17271,24668,10.113302673639003,ARG,13935.6811110049,0.0368461561060648,,0,0,0.0368461561060648
Ushuaia,AR,-54.81084,-68.31591,56825,10.947749246454157,ARG,13935.6811110049,0.0398863250475383,,0,0,0.0398863250475383
Unquillo,AR,-31.23073,-64.31615,15369,9.640172836532642,ARG,13935.6811110049,0.0351223853064527,,0,0,0.0351223853064527
Tres Isletas,AR,-26.34067,-60.43207,24747,10.11649995665088,ARG,13935.6811110049,0.0368578048812249,,0,0,0.0368578048812249
Tres Arroyos,AR,-38.37394,-60.27978,47136,10.760813534244376,ARG,13935.6811110049,0.0392052555041701,,0,0,0.0392052555041701
Trelew,AR,-43.24895,-65.30505,97915,11.49186524723858,ARG,13935.6811110049,0.0418687222674859,,0,0,0.0418687222674859
Termas de Río Hondo,AR,-27.49362,-64.85972,27838,10.234193194263003,ARG,13935.6811110049,0.0372866008488357,,0,0,0.0372866008488357
Tartagal,AR,-22.51637,-63.80131,60819,11.015673961231355,ARG,13935.6811110049,0.040133797581972,,0,0,0.040133797581972
Tafí Viejo,AR,-26.73201,-65.25921,48459,10.788493994370516,ARG,13935.6811110049,0.0393061047111807,,0,0,0.0393061047111807
Sunchales,AR,-30.94404,-61.56148,18757,9.839375607068884,ARG,13935.6811110049,0.0358481478606647,,0,0,0.0358481478606647
Santo Tomé,AR,-31.66274,-60.7653,59072,10.98652924621328,ARG,13935.6811110049,0.0400276136029221,,0,0,0.0400276136029221
Santiago del Estero,AR,-27.79511,-64.26149,252192,12.437949946378351,ARG,13935.6811110049,0.0453156263737901,,0,0,0.0453156263737901
Santa Rosa,AR,-36.61667,-64.28333,102860,11.541133841233815,ARG,13935.6811110049,0.0420482242921021,,0,0,0.0420482242921021
Santa Lucía,AR,-31.53987,-68.49503,43565,10.6820323086083,ARG,13935.6811110049,0.0389182290567583,,0,0,0.0389182290567583
Santa Fe,AR,-31.64881,-60.70868,391164,12.876884744837614,ARG,13935.6811110049,0.0469148131702626,,0,0,0.0469148131702626
San Salvador de Jujuy,AR,-24.19457,-65.29712,257970,12.460602454485278,ARG,13935.6811110049,0.0453981570639945,,0,0,0.0453981570639945
San Ramón de la Nueva Orán,AR,-23.13705,-64.32426,74059,11.212630854467603,ARG,13935.6811110049,0.0408513776513656,,0,0,0.0408513776513656
San Rafael,AR,-34.61772,-68.33007,118009,11.678524645619794,ARG,13935.6811110049,0.0425487851068337,,0,0,0.0425487851068337
San Pedro de Jujuy,AR,-24.23127,-64.86614,58430,10.975601849898007,ARG,13935.6811110049,0.0399878014304342,,0,0,0.0399878014304342
San Nicolás de los Arroyos,AR,-33.33425,-60.2108,134217,11.807220622692256,ARG,13935.6811110049,0.0430176677472983,,0,0,0.0430176677472983
San Miguel de Tucumán,AR,-26.82414,-65.2226,548866,13.215611432490206,ARG,13935.6811110049,0.0481489081848487,,0,0,0.0481489081848487
San Martín de los Andes,AR,-40.15789,-71.35337,23519,10.065606402012564,ARG,13935.6811110049,0.0366723825795782,,0,0,0.0366723825795782
San Martín,AR,-33.08103,-68.46814,82549,11.321159449348274,ARG,13935.6811110049,0.0412467837494515,,0,0,0.0412467837494515
San Luis,AR,-33.29501,-66.33563,169947,12.043247786887909,ARG,13935.6811110049,0.0438775939274861,,0,0,0.0438775939274861
San Justo,AR,-30.78913,-60.59189,21809,9.990123859195675,ARG,13935.6811110049,0.0363973743408587,,0,0,0.0363973743408587
San Juan,AR,-31.5375,-68.53639,109123,11.600240129296935,ARG,13935.6811110049,0.0422635683381673,,0,0,0.0422635683381673
San José de Jáchal,AR,-30.24057,-68.74693,21018,9.95318206955998,ARG,13935.6811110049,0.0362627830019382,,0,0,0.0362627830019382
San Jorge,AR,-31.89618,-61.85984,16873,9.733529254725571,ARG,13935.6811110049,0.0354625140724201,,0,0,0.0354625140724201
San Francisco,AR,-31.42797,-62.08266,59062,10.986359949808731,ARG,13935.6811110049,0.0400269967992971,,0,0,0.0400269967992971
Catamarca,AR,-28.46957,-65.78524,159139,11.977539596931528,ARG,13935.6811110049,0.0436381969369371,,0,0,0.0436381969369371
San Antonio Oeste,AR,-40.73193,-64.94769,16966,9.73902556004294,ARG,13935.6811110049,0.0354825389574914,,0,0,0.0354825389574914
Salta,AR,-24.7859,-65.41166,520683,13.162898610812546,ARG,13935.6811110049,0.0479568576827522,,0,0,0.0479568576827522
Rufino,AR,-34.26827,-62.71262,18361,9.818038590703646,ARG,13935.6811110049,0.0357704099484117,,0,0,0.0357704099484117
Rosario,AR,-32.94682,-60.63932,948312,13.762439895519814,ARG,13935.6811110049,0.0501411878151763,,0,0,0.0501411878151763
Río Tercero,AR,-32.17301,-64.11405,53389,10.885378741494232,ARG,13935.6811110049,0.0396590883637043,,0,0,0.0396590883637043
Río Segundo,AR,-31.6526,-63.9099,18155,9.806756363576357,ARG,13935.6811110049,0.0357293050081789,,0,0,0.0357293050081789
Río Grande,AR,-53.78769,-67.70946,52681,10.872029120208696,ARG,13935.6811110049,0.0396104512126452,,0,0,0.0396104512126452
Río Gallegos,AR,-51.62261,-69.21813,95796,11.469986648228536,ARG,13935.6811110049,0.0417890111878791,,0,0,0.0417890111878791
Río Cuarto,AR,-33.13067,-64.34992,157010,11.964071145570369,ARG,13935.6811110049,0.043589126848028,,0,0,0.043589126848028
Río Ceballos,AR,-31.16486,-64.32241,16632,9.719143952790535,ARG,13935.6811110049,0.0354101035891353,,0,0,0.0354101035891353
Rawson,AR,-43.30016,-65.10228,26335,10.178692103476797,ARG,13935.6811110049,0.0370843917465119,,0,0,0.0370843917465119
Rafaela,AR,-31.25033,-61.4867,88713,11.3931729912432,ARG,13935.6811110049,0.041509153253464,,0,0,0.041509153253464
Quitilipi,AR,-26.86913,-60.21683,32083,10.376112742486816,ARG,13935.6811110049,0.0378036613974127,,0,0,0.0378036613974127
Punta Alta,AR,-38.87588,-62.07359,57209,10.954483987262574,ARG,13935.6811110049,0.0399108619687764,,0,0,0.0399108619687764
Puerto Madryn,AR,-42.7692,-65.03851,64555,11.075288343155712,ARG,13935.6811110049,0.0403509927845122,,0,0,0.0403509927845122
Presidencia Roque Sáenz Peña,AR,-26.78522,-60.43876,81879,11.313010039775223,ARG,13935.6811110049,0.0412170927150791,,0,0,0.0412170927150791
Pocito,AR,-31.68333,-68.58333,40969,10.620595370540917,ARG,13935.6811110049,0.0386943936704597,,0,0,0.0386943936704597
Plottier,AR,-38.96667,-68.23333,25186,10.134083267375376,ARG,13935.6811110049,0.0369218667839211,,0,0,0.0369218667839211
Pergamino,AR,-33.88995,-60.57357,91399,11.42300075744224,ARG,13935.6811110049,0.0416178258172279,,0,0,0.0416178258172279
Pérez,AR,-32.99835,-60.76791,24436,10.10385365616035,ARG,13935.6811110049,0.0368117301638872,,0,0,0.0368117301638872
Paraná,AR,-31.73271,-60.52897,247139,12.417710256658182,ARG,13935.6811110049,0.0452418863908158,,0,0,0.0452418863908158
Palpalá,AR,-24.25798,-65.21358,48199,10.783114300038692,ARG,13935.6811110049,0.0392865046790696,,0,0,0.0392865046790696
Olavarría,AR,-36.89272,-60.32254,89721,11.404471279959475,ARG,13935.6811110049,0.0415503167114564,,0,0,0.0415503167114564
Nueve de Julio,AR,-35.44437,-60.88313,34718,10.455042366516189,ARG,13935.6811110049,0.0380912285099802,,0,0,0.0380912285099802
Neuquén,AR,-38.95161,-68.0591,231198,12.35103409051149,ARG,13935.6811110049,0.0449989627381105,,0,0,0.0449989627381105
Morteros,AR,-30.71164,-61.99862,15129,9.624434806782402,ARG,13935.6811110049,0.0350650463817025,,0,0,0.0350650463817025
Monteros,AR,-27.16741,-65.49832,23771,10.076263696486553,ARG,13935.6811110049,0.0367112106804003,,0,0,0.0367112106804003
Mendoza,AR,-32.89084,-68.82717,114893,11.65176524315222,ARG,13935.6811110049,0.0424512916220203,,0,0,0.0424512916220203
Marcos Juárez,AR,-32.6978,-62.10672,24226,10.095222992690658,ARG,13935.6811110049,0.0367802857600396,,0,0,0.0367802857600396
Machagai,AR,-26.92614,-60.04955,28070,10.242492293944023,ARG,13935.6811110049,0.0373168372545139,,0,0,0.0373168372545139
Lincoln,AR,-34.86649,-61.5302,41808,10.640866906341545,ARG,13935.6811110049,0.038768249679394,,0,0,0.038768249679394
Libertador General San Martín,AR,-23.81305,-64.79353,49267,10.805030062061377,ARG,13935.6811110049,0.0393663511560049,,0,0,0.0393663511560049
Las Breñas,AR,-27.08966,-61.08161,26955,10.201961186066107,ARG,13935.6811110049,0.037169168824505,,0,0,0.037169168824505
La Rioja,AR,-29.41105,-66.85067,178872,12.09443133580393,ARG,13935.6811110049,0.0440640727756212,,0,0,0.0440640727756212
La Falda,AR,-31.08841,-64.48987,15112,9.62331057957012,ARG,13935.6811110049,0.0350609504446285,,0,0,0.0350609504446285
La Calera,AR,-31.34377,-64.33529,24796,10.118477957093951,ARG,13935.6811110049,0.0368650114007423,,0,0,0.0368650114007423
Laboulaye,AR,-34.12662,-63.39119,19908,9.898927169779796,ARG,13935.6811110049,0.0360651141917254,,0,0,0.0360651141917254
Junín,AR,-34.58382,-60.94332,87509,11.379508351529877,ARG,13935.6811110049,0.0414593683845386,,0,0,0.0414593683845386
Joaquín V. González,AR,-25.11364,-64.12628,19185,9.861936125377891,ARG,13935.6811110049,0.0359303434011595,,0,0,0.0359303434011595
Jesús María,AR,-30.98153,-64.09424,26825,10.197126845462035,ARG,13935.6811110049,0.0371515556990686,,0,0,0.0371515556990686
Granadero Baigorria,AR,-32.85683,-60.71754,32427,10.386777526107595,ARG,13935.6811110049,0.0378425167837103,,0,0,0.0378425167837103
Gobernador Gálvez,AR,-33.03016,-60.64045,74650,11.2205791987249,ARG,13935.6811110049,0.0408803361373063,,0,0,0.0408803361373063
General Villegas,AR,-35.03285,-63.01252,16270,9.69713966113932,ARG,13935.6811110049,0.0353299345690487,,0,0,0.0353299345690487
General Roca,AR,-39.03333,-67.58333,73212,11.201128279809582,ARG,13935.6811110049,0.0408094699111201,,0,0,0.0408094699111201
General Pinedo,AR,-27.31667,-61.28333,15741,9.664087578702397,ARG,13935.6811110049,0.0352095147390089,,0,0,0.0352095147390089
General Pico,AR,-35.65662,-63.75682,57029,10.951332724150584,ARG,13935.6811110049,0.039899380859558,,0,0,0.039899380859558
General Mosconi,AR,-22.59588,-63.81255,19811,9.89404309370813,ARG,13935.6811110049,0.0360473198632871,,0,0,0.0360473198632871
Gálvez,AR,-32.02927,-61.22103,18374,9.818746324081037,ARG,13935.6811110049,0.0357729884586517,,0,0,0.0357729884586517
Firmat,AR,-33.45937,-61.4832,18294,9.814383077453307,ARG,13935.6811110049,0.0357570916866908,,0,0,0.0357570916866908
Famaillá,AR,-27.05413,-65.40329,30951,10.34019289638035,ARG,13935.6811110049,0.037672793341778,,0,0,0.037672793341778
Esquel,AR,-42.91147,-71.31947,28486,10.257203121842208,ARG,13935.6811110049,0.0373704337381432,,0,0,0.0373704337381432
Esperanza,AR,-31.4488,-60.93173,35885,10.488102526272613,ARG,13935.6811110049,0.0382116777684061,,0,0,0.0382116777684061
Embarcación,AR,-23.21003,-64.09965,23961,10.084224521199843,ARG,13935.6811110049,0.0367402146368312,,0,0,0.0367402146368312
Embalse,AR,-32.18,-64.41809,15900,9.674137279312395,ARG,13935.6811110049,0.0352461291714495,,0,0,0.0352461291714495
El Bolsón,AR,-41.96051,-71.53336,15537,9.651043915510366,ARG,13935.6811110049,0.0351619922959774,,0,0,0.0351619922959774
Diamante,AR,-32.06641,-60.63837,19545,9.880525940898782,ARG,13935.6811110049,0.0359980723386559,,0,0,0.0359980723386559
Deán Funes,AR,-30.42036,-64.34984,20164,9.911703707307469,ARG,13935.6811110049,0.0361116634063026,,0,0,0.0361116634063026
Cutral-Có,AR,-38.93424,-69.23052,47380,10.765976583441928,ARG,13935.6811110049,0.0392240662253415,,0,0,0.0392240662253415
Cruz del Eje,AR,-30.72644,-64.80387,28166,10.245906358926655,ARG,13935.6811110049,0.037329275839155,,0,0,0.037329275839155
Crespo,AR,-32.02873,-60.30658,18296,9.814492390964563,ARG,13935.6811110049,0.0357574899525027,,0,0,0.0357574899525027
Cosquín,AR,-31.24508,-64.46563,19070,9.855924135604518,ARG,13935.6811110049,0.0359084397045288,,0,0,0.0359084397045288
Coronel Suárez,AR,-37.45467,-61.93343,27000,10.203629181337648,ARG,13935.6811110049,0.0371752458911313,,0,0,0.0371752458911313
Coronda,AR,-31.97263,-60.91983,16975,9.739555860853764,ARG,13935.6811110049,0.0354844710213373,,0,0,0.0354844710213373
Córdoba,AR,-31.4135,-64.18105,1317298,14.09109398608911,ARG,13935.6811110049,0.0513385849777844,,0,0,0.0513385849777844
Comodoro Rivadavia,AR,-45.86413,-67.49656,140850,11.855457873030824,ARG,13935.6811110049,0.0431934122408094,,0,0,0.0431934122408094
Cipolletti,AR,-38.93392,-67.99032,75078,11.22629617148548,ARG,13935.6811110049,0.0409011649879388,,0,0,0.0409011649879388
Cinco Saltos,AR,-38.82225,-68.06293,19819,9.89444680788398,ARG,13935.6811110049,0.0360487907295339,,0,0,0.0360487907295339
Chivilcoy,AR,-34.89566,-60.01667,54514,10.90623117214048,ARG,13935.6811110049,0.0397350607675348,,0,0,0.0397350607675348
Chimbas,AR,-31.48333,-68.53333,73829,11.20952043205321,ARG,13935.6811110049,0.0408400453385164,,0,0,0.0408400453385164
Chilecito,AR,-29.16195,-67.4974,42248,10.65133596386616,ARG,13935.6811110049,0.038806391969829,,0,0,0.038806391969829
Charata,AR,-27.21438,-61.18795,27813,10.233294770038556,ARG,13935.6811110049,0.0372833275878357,,0,0,0.0372833275878357
Chacabuco,AR,-34.64167,-60.47389,34587,10.45126208008032,ARG,13935.6811110049,0.0380774556576651,,0,0,0.0380774556576651
Centenario,AR,-38.82955,-68.1318,28956,10.273567249973496,ARG,13935.6811110049,0.0374300537494415,,0,0,0.0374300537494415
Caucete,AR,-31.65179,-68.28105,33609,10.422578920719152,ARG,13935.6811110049,0.0379729532807916,,0,0,0.0379729532807916
Catriel,AR,-37.87907,-67.7956,15169,9.627075072342578,ARG,13935.6811110049,0.0350746657553267,,0,0,0.0350746657553267
Castelli,AR,-25.94679,-60.61947,36588,10.507502927768234,ARG,13935.6811110049,0.0382823599426766,,0,0,0.0382823599426766
Casilda,AR,-33.04417,-61.16806,32002,10.373584927387608,ARG,13935.6811110049,0.0377944517185612,,0,0,0.0377944517185612
Carcarañá,AR,-32.85679,-61.15331,15619,9.656307423393676,ARG,13935.6811110049,0.0351811690218594,,0,0,0.0351811690218594
Capitán Bermúdez,AR,-32.82262,-60.71852,27060,10.205848855956967,ARG,13935.6811110049,0.0371833329107892,,0,0,0.0371833329107892
Cañada de Gómez,AR,-32.81636,-61.39493,36000,10.491301994830229,ARG,13935.6811110049,0.0382233345062428,,0,0,0.0382233345062428
Caleta Olivia,AR,-46.43929,-67.52814,36077,10.493438540267624,ARG,13935.6811110049,0.0382311186583892,,0,0,0.0382311186583892
Bell Ville,AR,-32.62591,-62.68873,35105,10.46612733501629,ARG,13935.6811110049,0.0381316147708255,,0,0,0.0381316147708255
Bella Vista,AR,-27.03424,-65.30196,15126,9.6242365055622,ARG,13935.6811110049,0.0350643239037988,,0,0,0.0350643239037988
Bahía Blanca,AR,-38.71959,-62.27243,299101,12.60853993132253,ARG,13935.6811110049,0.0459371429463899,,0,0,0.0459371429463899
Arroyo Seco,AR,-33.15489,-60.50863,20620,9.934065253000266,ARG,13935.6811110049,0.0361931340227727,,0,0,0.0361931340227727
Arroyito,AR,-31.42022,-63.05002,19577,9.882161765821376,ARG,13935.6811110049,0.0360040321979032,,0,0,0.0360040321979032
Añatuya,AR,-28.46064,-62.83472,20261,9.916502489613622,ARG,13935.6811110049,0.0361291469809249,,0,0,0.0361291469809249
Alta Gracia,AR,-31.65292,-64.42826,40384,10.606213707876396,ARG,13935.6811110049,0.0386419964462588,,0,0,0.0386419964462588
Allen,AR,-38.97736,-67.82714,26083,10.169077378513093,ARG,13935.6811110049,0.0370493620763476,,0,0,0.0370493620763476
Alderetes,AR,-26.81667,-65.13333,38466,10.557556009861749,ARG,13935.6811110049,0.0384647201207433,,0,0,0.0384647201207433
Albardón,AR,-31.43722,-68.52556,20413,9.923976218963444,ARG,13935.6811110049,0.0361563762854562,,0,0,0.0361563762854562
Aguilares,AR,-27.4338,-65.61427,32494,10.388841510328447,ARG,13935.6811110049,0.0378500365709901,,0,0,0.0378500365709901
Balvanera,AR,-34.61032,-58.39766,152198,11.932944154085904,ARG,13935.6811110049,0.0434757207704726,,0,0,0.0434757207704726
Villa Santa Rita,AR,-34.61082,-58.481,34000,10.434145214930489,ARG,13935.6811110049,0.0380150931727569,,0,0,0.0380150931727569
Villa Mercedes,AR,-33.67571,-65.45783,96781,11.480216305560525,ARG,13935.6811110049,0.0418262812630592,,0,0,0.0418262812630592
San Miguel,AR,-34.54335,-58.71229,72992,11.19811882512179,ARG,13935.6811110049,0.040798505457588,,0,0,0.040798505457588
San Carlos de Bariloche,AR,-41.14557,-71.30822,95394,11.465781445161412,ARG,13935.6811110049,0.0417736902216558,,0,0,0.0417736902216558
Adrogué,AR,-34.80041,-58.38384,28265,10.249414947928097,ARG,13935.6811110049,0.0373420588065229,,0,0,0.0373420588065229
Ingeniero Pablo Nogués,AR,-34.47775,-58.70652,38470,10.557659989689752,ARG,13935.6811110049,0.0384650989541568,,0,0,0.0384650989541568
José C. Paz,AR,-34.51541,-58.76813,230208,12.346742870943554,ARG,13935.6811110049,0.0449833283849038,,0,0,0.0449833283849038
Santa María,AR,-34.56635,-58.75762,113302,11.637820925041543,ARG,13935.6811110049,0.0424004877908211,,0,0,0.0424004877908211
Pago Pago,AS,-14.27806,-170.7025,11500,9.35018926709258,ASM,18017.4589383973,0.0440438145897891,,0,0,0.0440438145897891
Wilten,AT,47.25829,11.38808,18142,9.806040090370162,AUT,52176.6649141178,0.1337645285304719,,0,0,0.1337645285304719
Wiener Neustadt,AT,47.80485,16.23196,44820,10.710432058574115,AUT,52176.6649141178,0.1461013703258006,,0,0,0.1461013703258006
Vienna,AT,48.20849,16.37208,1691468,14.341107940106198,AUT,52176.6649141178,0.195627544302697,,0,0,0.195627544302697
Wetzelsdorf,AT,47.05293,15.39923,15687,9.660651367876184,AUT,52176.6649141178,0.1317812759903203,,0,0,0.1317812759903203
Wels,AT,48.16667,14.03333,16857,9.732580600557428,AUT,52176.6649141178,0.1327624651154406,,0,0,0.1327624651154406
Weinzierl bei Krems,AT,48.4,15.6,24092,10.089676620856572,AUT,52176.6649141178,0.1376336241516281,,0,0,0.1376336241516281
Villach,AT,46.61028,13.85583,58882,10.983307703191752,AUT,52176.6649141178,0.149823676334479,,0,0,0.149823676334479
Telfs,AT,47.30707,11.06817,15229,9.631022445889208,AUT,52176.6649141178,0.1313771068513071,,0,0,0.1313771068513071
Straßgang,AT,47.03333,15.4,16268,9.69701673550917,AUT,52176.6649141178,0.1322773372149772,,0,0,0.1322773372149772
Stockerau,AT,48.38333,16.21667,16292,9.698490846702954,AUT,52176.6649141178,0.13229744561623,,0,0,0.13229744561623
Steyr,AT,48.04274,14.42127,38331,10.554040335463652,AUT,52176.6649141178,0.1439680254776102,,0,0,0.1439680254776102
Simmering,AT,48.18333,16.43333,101420,11.527035449288569,AUT,52176.6649141178,0.157240685130619,,0,0,0.157240685130619
Sankt Pölten,AT,48.2,15.63333,21911,9.994789710942914,AUT,52176.6649141178,0.1363392685655461,,0,0,0.1363392685655461
Sankt Peter,AT,47.05,15.46667,15187,9.628260921351693,AUT,52176.6649141178,0.1313394368005647,,0,0,0.1313394368005647
Sankt Peter,AT,46.62978,14.34016,20320,9.919410113079945,AUT,52176.6649141178,0.1353110128908769,,0,0,0.1353110128908769
Sankt Martin,AT,46.61667,14.28333,20000,9.90353755128617,AUT,52176.6649141178,0.1350944947321352,,0,0,0.1350944947321352
Salzburg,AT,47.79941,13.04399,157245,11.965566737037248,AUT,52176.6649141178,0.1632227054375897,,0,0,0.1632227054375897
Saalfelden am Steinernen Meer,AT,47.42681,12.848,16790,9.72859830755947,AUT,52176.6649141178,0.1327081425203428,,0,0,0.1327081425203428
Pradl,AT,47.26539,11.4152,32588,10.39173008710186,AUT,52176.6649141178,0.1417539458238772,,0,0,0.1417539458238772
Perchtoldsdorf,AT,48.11935,16.26607,15047,9.619000370980867,AUT,52176.6649141178,0.1312131133159705,,0,0,0.1312131133159705
Ottakring,AT,48.21667,16.3,104627,11.558166481215816,AUT,52176.6649141178,0.1576653446027442,,0,0,0.1576653446027442
Mödling,AT,48.08605,16.28921,20555,9.93090814811212,AUT,52176.6649141178,0.1354678579803251,,0,0,0.1354678579803251
Meidling,AT,48.16667,16.33333,97624,11.488888887141988,AUT,52176.6649141178,0.1567203265706324,,0,0,0.1567203265706324
Lustenau,AT,47.42642,9.65851,22821,10.035480261994625,AUT,52176.6649141178,0.1368943297652676,,0,0,0.1368943297652676
Linz,AT,48.30639,14.28611,204846,12.230018638005683,AUT,52176.6649141178,0.1668301028708073,,0,0,0.1668301028708073
Klosterneuburg,AT,48.30521,16.32522,15614,9.65598726971718,AUT,52176.6649141178,0.1317176528676827,,0,0,0.1317176528676827
Klagenfurt am Wörthersee,AT,46.62472,14.30528,100316,11.516090451113383,AUT,52176.6649141178,0.1570913840358674,,0,0,0.1570913840358674
Innsbruck,AT,47.26266,11.39454,132493,11.79429264036424,AUT,52176.6649141178,0.1608863496222136,,0,0,0.1608863496222136
Innere Stadt,AT,48.20906,16.37135,16450,9.70814154461942,AUT,52176.6649141178,0.1324290911168489,,0,0,0.1324290911168489
Hötting,AT,47.26815,11.36868,35043,10.464359693786257,AUT,52176.6649141178,0.1427446887747481,,0,0,0.1427446887747481
Hohenems,AT,47.36121,9.68694,16317,9.700024071988745,AUT,52176.6649141178,0.1323183603948353,,0,0,0.1323183603948353
Hietzing,AT,48.18623,16.2965,54265,10.90165315879472,AUT,52176.6649141178,0.1487098238993492,,0,0,0.1487098238993492
Hernals,AT,48.23333,16.26667,57546,10.960357284207449,AUT,52176.6649141178,0.1495106088835283,,0,0,0.1495106088835283
Graz,AT,47.06667,15.45,295424,12.596170276507216,AUT,52176.6649141178,0.1718247899048645,,0,0,0.1718247899048645
Floridsdorf,AT,48.25,16.4,162779,12.000154874881032,AUT,52176.6649141178,0.163694523409858,,0,0,0.163694523409858
Feldkirch,AT,47.23306,9.6,33420,10.416939723904,AUT,52176.6649141178,0.1420978313424133,,0,0,0.1420978313424133
Eggenberg,AT,47.07,15.39871,20511,9.928765359720396,AUT,52176.6649141178,0.1354386281305266,,0,0,0.1354386281305266
Dornbirn,AT,47.41427,9.74195,49278,10.80525330579372,AUT,52176.6649141178,0.1473948302048253,,0,0,0.1473948302048253
Bregenz,AT,47.50311,9.7471,29806,10.302498544237826,AUT,52176.6649141178,0.1405367352933007,,0,0,0.1405367352933007
Baden,AT,48.00543,16.23264,26286,10.176829799383084,AUT,52176.6649141178,0.1388224836431347,,0,0,0.1388224836431347
Amstetten,AT,48.1229,14.87206,15559,9.652458797732384,AUT,52176.6649141178,0.1316695208605595,,0,0,0.1316695208605595
Favoriten,AT,48.16116,16.38233,201882,12.215443600656842,AUT,52176.6649141178,0.1666312842874326,,0,0,0.1666312842874326
Donaustadt,AT,48.2333,16.46002,187007,12.138906675670317,AUT,52176.6649141178,0.1655872414738561,,0,0,0.1655872414738561
Jakomini,AT,47.05441,15.44984,32912,10.4016229954856,AUT,52176.6649141178,0.141888895325771,,0,0,0.141888895325771
Lend,AT,47.08256,15.41589,31147,10.346505316696875,AUT,52176.6649141178,0.1411370331827529,,0,0,0.1411370331827529
Geidorf,AT,47.08393,15.444,24767,10.117307776389454,AUT,52176.6649141178,0.138010541690058,,0,0,0.138010541690058
Sankt Leonhard,AT,47.06924,15.45784,15853,9.671177113397102,AUT,52176.6649141178,0.1319248580452642,,0,0,0.1319248580452642
Andritz,AT,47.11387,15.42348,19020,9.85329891095284,AUT,52176.6649141178,0.1344091877196951,,0,0,0.1344091877196951
Gries,AT,47.06236,15.42421,29363,10.287524713230672,AUT,52176.6649141178,0.1403324767519825,,0,0,0.1403324767519825
Scarborough,AU,-31.89578,115.76431,17605,9.775995032020852,AUS,64997.0136536475,0.1661213141347256,,0,0,0.1661213141347256
Rockingham,AU,-32.27682,115.72978,15312,9.636457419815208,AUS,64997.0136536475,0.1637501824560681,,0,0,0.1637501824560681
Perth,AU,-31.95224,115.8614,2192229,14.600429848552889,AUS,64997.0136536475,0.2481018643553976,,0,0,0.2481018643553976
Mount Isa,AU,-20.72523,139.49727,22785,10.03390159125806,AUS,64997.0136536475,0.1705038630623915,,0,0,0.1705038630623915
Morphett Vale,AU,-35.13333,138.51667,24002,10.085934101518234,AUS,64997.0136536475,0.1713880399624243,,0,0,0.1713880399624243
Mandurah,AU,-32.5269,115.7217,107641,11.58656618512159,AUS,64997.0136536475,0.1968879479456416,,0,0,0.1968879479456416
Kwinana,AU,-32.23013,115.78128,30433,10.32331568348006,AUS,64997.0136536475,0.1754218125060594,,0,0,0.1754218125060594
Gosnells,AU,-32.081,116.0054,21149,9.959395184474424,AUS,64997.0136536475,0.1692377922260405,,0,0,0.1692377922260405
Geraldton,AU,-28.77897,114.61459,37648,10.53606167245034,AUS,64997.0136536475,0.179036957885008,,0,0,0.179036957885008
Gawler,AU,-34.60251,138.74902,20006,9.903837491300417,AUS,64997.0136536475,0.1682937126750454,,0,0,0.1682937126750454
Darwin,AU,-12.46113,130.84185,147255,11.899927847712558,AUS,64997.0136536475,0.2022128331382534,,0,0,0.2022128331382534
Byford,AU,-32.22099,116.009,18878,9.845805472195044,AUS,64997.0136536475,0.1673075874525899,,0,0,0.1673075874525899
Busselton,AU,-33.65249,115.3455,21898,9.99419625266159,AUS,64997.0136536475,0.1698291590548501,,0,0,0.1698291590548501
Bunbury,AU,-33.32711,115.64137,76452,11.244431451921493,AUS,64997.0136536475,0.191074128349358,,0,0,0.191074128349358
Australind,AU,-33.2792,115.71504,15988,9.67965626478542,AUS,64997.0136536475,0.1644842508421554,,0,0,0.1644842508421554
Alice Springs,AU,-23.69748,133.88362,25186,10.134083267375376,AUS,64997.0136536475,0.1722062280527907,,0,0,0.1722062280527907
Albany,AU,-35.02692,117.88369,33650,10.423798052313334,AUS,64997.0136536475,0.1771292871010525,,0,0,0.1771292871010525
Adelaide,AU,-34.92866,138.59863,1387290,14.142863482626163,AUS,64997.0136536475,0.240326540640254,,0,0,0.240326540640254
Yarraville,AU,-37.81667,144.9,15636,9.65739517984351,AUS,64997.0136536475,0.1641059731658164,,0,0,0.1641059731658164
Wollert,AU,-37.58333,145.03333,24407,10.102666226396506,AUS,64997.0136536475,0.1716723652473637,,0,0,0.1716723652473637
Wodonga,AU,-36.12179,146.88809,18582,9.830002463273653,AUS,64997.0136536475,0.1670390504289206,,0,0,0.1670390504289206
Wheelers Hill,AU,-37.9,145.18333,20652,9.93561586628765,AUS,64997.0136536475,0.1688337155490909,,0,0,0.1688337155490909
Westmead,AU,-33.80383,150.98768,17835,9.788974165747367,AUS,64997.0136536475,0.1663418656738699,,0,0,0.1663418656738699
Werribee,AU,-37.9,144.66667,50027,10.820338127668798,AUS,64997.0136536475,0.1838676046031958,,0,0,0.1838676046031958
Warwick,AU,-28.21901,152.03438,15380,9.64088826045181,AUS,64997.0136536475,0.1638254747477338,,0,0,0.1638254747477338
Warrnambool,AU,-38.38176,142.48799,29176,10.281136006647518,AUS,64997.0136536475,0.1747050626179663,,0,0,0.1747050626179663
Warragul,AU,-38.15912,145.93118,15284,9.634627234324936,AUS,64997.0136536475,0.1637190825201783,,0,0,0.1637190825201783
Wantirna South,AU,-37.88333,145.21667,20754,9.94054246048714,AUS,64997.0136536475,0.1689174320710354,,0,0,0.1689174320710354
Wangaratta,AU,-36.35846,146.32056,19318,9.868844346592557,AUS,64997.0136536475,0.1676990819325445,,0,0,0.1676990819325445
Wahroonga,AU,-33.71816,151.11561,17652,9.778661019589284,AUS,64997.0136536475,0.1661666166698521,,0,0,0.1661666166698521
Upper Coomera,AU,-27.87683,153.28572,24956,10.124909622951998,AUS,64997.0136536475,0.1720503423488777,,0,0,0.1720503423488777
Truganina,AU,-37.81667,144.75,36305,10.499738295850376,AUS,64997.0136536475,0.1784197228071636,,0,0,0.1784197228071636
Traralgon,AU,-38.19528,146.5415,24605,10.110745594620116,AUS,64997.0136536475,0.1718096561586508,,0,0,0.1718096561586508
Townsville,AU,-19.26639,146.80569,180820,12.10526287063775,AUS,64997.0136536475,0.2057020456158058,,0,0,0.2057020456158058
Toowoomba,AU,-27.56056,151.95386,140303,11.851566776019135,AUS,64997.0136536475,0.2013910441790364,,0,0,0.2013910441790364
Thornbury,AU,-37.75819,145.00583,19005,9.85250999777126,AUS,64997.0136536475,0.1674215159678687,,0,0,0.1674215159678687
Thomastown,AU,-37.68333,145.01667,20234,9.915169057309964,AUS,64997.0136536475,0.1684862674615961,,0,0,0.1684862674615961
Templestowe,AU,-37.75405,145.14864,16966,9.73902556004294,AUS,64997.0136536475,0.1654931001015022,,0,0,0.1654931001015022
Tarneit,AU,-37.83634,144.65952,56370,10.939710120850858,AUS,64997.0136536475,0.1858960663928482,,0,0,0.1858960663928482
Taree,AU,-31.91099,152.45387,16359,9.70259461015674,AUS,64997.0136536475,0.1648740370546769,,0,0,0.1648740370546769
Tamworth,AU,-31.09048,150.92905,63920,11.065403224873476,AUS,64997.0136536475,0.1880319414162619,,0,0,0.1880319414162619
Sydney,AU,-33.86785,151.20732,5231147,15.470141314821944,AUS,64997.0136536475,0.2628806782992903,,0,0,0.2628806782992903
Surry Hills,AU,-33.88374,151.21282,16492,9.710691327448153,AUS,64997.0136536475,0.1650116227748232,,0,0,0.1650116227748232
Surfers Paradise,AU,-28.00274,153.42999,31073,10.344126735651946,AUS,64997.0136536475,0.1757754500973221,,0,0,0.1757754500973221
Sunbury,AU,-37.57742,144.72607,38851,10.56751483452222,AUS,64997.0136536475,0.1795714344881527,,0,0,0.1795714344881527
Strathfield,AU,-33.88096,151.07986,25769,10.15696630364641,AUS,64997.0136536475,0.1725950744100449,,0,0,0.1725950744100449
Springvale,AU,-37.94853,145.15274,22174,10.00672080717778,AUS,64997.0136536475,0.1700419860303514,,0,0,0.1700419860303514
South Yarra,AU,-37.83834,144.99149,25237,10.136106074212856,AUS,64997.0136536475,0.1722406011604878,,0,0,0.1722406011604878
Southport,AU,-27.96724,153.39796,32965,10.4032320062913,AUS,64997.0136536475,0.1767798128449235,,0,0,0.1767798128449235
Shepparton,AU,-36.38047,145.39867,51631,10.851896914291745,AUS,64997.0136536475,0.184403876060897,,0,0,0.184403876060897
Seven Hills,AU,-33.78333,150.93333,19196,9.86250929580757,AUS,64997.0136536475,0.1675914318204009,,0,0,0.1675914318204009
Seaford,AU,-38.1,145.13333,17215,9.75359446296151,AUS,64997.0136536475,0.1657406662357327,,0,0,0.1657406662357327
Saint Kilda,AU,-37.8676,144.98099,19490,9.87770809954864,AUS,64997.0136536475,0.1678497017195235,,0,0,0.1678497017195235
Saint Ives,AU,-33.72976,151.15977,18384,9.819290393735372,AUS,64997.0136536475,0.1668570226084304,,0,0,0.1668570226084304
Saint Albans,AU,-37.73333,144.8,35091,10.465728463248274,AUS,64997.0136536475,0.1778418012690636,,0,0,0.1778418012690636
Ryde,AU,-33.8188,151.1062,26385,10.180588845443722,AUS,64997.0136536475,0.1729964870205994,,0,0,0.1729964870205994
Rowville,AU,-37.93333,145.23333,33571,10.421447665202718,AUS,64997.0136536475,0.177089347494469,,0,0,0.177089347494469
Rockhampton,AU,-23.38032,150.50595,78592,11.27203791592718,AUS,64997.0136536475,0.1915432388659056,,0,0,0.1915432388659056
Rockdale,AU,-33.95,151.13333,15436,9.64452250418184,AUS,64997.0136536475,0.1638872306449434,,0,0,0.1638872306449434
Ringwood,AU,-37.81667,145.23333,19144,9.859796863911397,AUS,64997.0136536475,0.1675453400671198,,0,0,0.1675453400671198
Richmond,AU,-37.81819,145.00176,28587,10.26074232833987,AUS,64997.0136536475,0.1743585173681569,,0,0,0.1743585173681569
Reservoir,AU,-37.71667,145.0,51096,10.841481066053516,AUS,64997.0136536475,0.1842268818632225,,0,0,0.1842268818632225
Quakers Hill,AU,-33.73333,150.88333,26904,10.20006742192352,AUS,64997.0136536475,0.1733274821481235,,0,0,0.1733274821481235
Preston,AU,-37.75,145.01667,33790,10.427949773825029,AUS,64997.0136536475,0.1771998363833695,,0,0,0.1771998363833695
Port Melbourne,AU,-37.83961,144.94228,17633,9.777584135646972,AUS,64997.0136536475,0.1661483174199976,,0,0,0.1661483174199976
Port Macquarie,AU,-31.43084,152.90894,45692,10.729700392283611,AUS,64997.0136536475,0.1823274176797099,,0,0,0.1823274176797099
Point Cook,AU,-37.91482,144.75088,66781,11.109188862135731,AUS,64997.0136536475,0.1887759810335497,,0,0,0.1887759810335497
Pascoe Vale,AU,-37.73333,144.93333,18171,9.807637226879294,AUS,64997.0136536475,0.1666590029300629,,0,0,0.1666590029300629
Palm Beach,AU,-28.11694,153.46584,15205,9.62944536578838,AUS,64997.0136536475,0.1636310281780734,,0,0,0.1636310281780734
Pakenham,AU,-38.07018,145.47411,54118,10.898940604656511,AUS,64997.0136536475,0.1852032790515435,,0,0,0.1852032790515435
Orange,AU,-33.28397,149.10018,38408,10.556047086114289,AUS,64997.0136536475,0.1793765655843273,,0,0,0.1793765655843273
Officer,AU,-38.05916,145.40947,18503,9.825742203911275,AUS,64997.0136536475,0.1669666567869932,,0,0,0.1669666567869932
North Melbourne,AU,-37.79798,144.94512,15395,9.641863014403636,AUS,64997.0136536475,0.1638420385253242,,0,0,0.1638420385253242
Northcote,AU,-37.76667,145.0,25276,10.13765017033277,AUS,64997.0136536475,0.1722668396431947,,0,0,0.1722668396431947
Noble Park,AU,-37.96667,145.16667,30921,10.33922318366254,AUS,64997.0136536475,0.1756921251265401,,0,0,0.1756921251265401
Newcastle,AU,-32.92953,151.7801,348539,12.761508280214631,AUS,64997.0136536475,0.2168534782297458,,0,0,0.2168534782297458
Nerang,AU,-27.98941,153.33633,16739,9.725556344043468,AUS,64997.0136536475,0.1652642207030504,,0,0,0.1652642207030504
Narre Warren,AU,-38.03333,145.3,27689,10.228826616165009,AUS,64997.0136536475,0.1738161807537593,,0,0,0.1738161807537593
Narangba,AU,-27.20338,152.95923,18217,9.810165395304756,AUS,64997.0136536475,0.1667019635350772,,0,0,0.1667019635350772
Mulgrave,AU,-37.92845,145.17708,19889,9.897972371848018,AUS,64997.0136536475,0.1681940480017515,,0,0,0.1681940480017515
Mount Waverley,AU,-37.87709,145.12939,35340,10.472799042021167,AUS,64997.0136536475,0.1779619500450807,,0,0,0.1779619500450807
Mount Martha,AU,-38.26667,145.01667,19846,9.895808141192258,AUS,64997.0136536475,0.1681572717104944,,0,0,0.1681572717104944
Mount Gambier,AU,-37.8318,140.77919,25030,10.127870335685287,AUS,64997.0136536475,0.1721006530833266,,0,0,0.1721006530833266
Mount Eliza,AU,-38.18333,145.08333,18734,9.838148711227788,AUS,64997.0136536475,0.1671774778126269,,0,0,0.1671774778126269
Mount Druitt,AU,-33.76667,150.81667,16682,9.722145515855674,AUS,64997.0136536475,0.1652062612565707,,0,0,0.1652062612565707
Mosman,AU,-33.83902,151.23956,27844,10.234408696023769,AUS,64997.0136536475,0.1739110357980494,,0,0,0.1739110357980494
Mornington,AU,-38.21792,145.03876,25759,10.15657818021829,AUS,64997.0136536475,0.1725884791147614,,0,0,0.1725884791147614
Morayfield,AU,-27.10876,152.94907,21221,9.962793658433537,AUS,64997.0136536475,0.1692955417398538,,0,0,0.1692955417398538
South Morang,AU,-37.65,145.1,24989,10.126231023828998,AUS,64997.0136536475,0.1720727966207412,,0,0,0.1720727966207412
Mooroolbark,AU,-37.78247,145.31682,23059,10.04585479382305,AUS,64997.0136536475,0.170706981180978,,0,0,0.170706981180978
Moonee Ponds,AU,-37.76667,144.91667,16224,9.69430854157229,AUS,64997.0136536475,0.164733233730028,,0,0,0.164733233730028
Mitcham,AU,-37.81667,145.2,16795,9.728896041804084,AUS,64997.0136536475,0.165320971445966,,0,0,0.165320971445966
Miranda,AU,-34.03857,151.10005,15111,9.623244409181346,AUS,64997.0136536475,0.1635256566985382,,0,0,0.1635256566985382
Mill Park,AU,-37.66667,145.06667,28712,10.265105260864017,AUS,64997.0136536475,0.1744326557123375,,0,0,0.1744326557123375
Mildura,AU,-34.18551,142.16251,32936,10.402351924902842,AUS,64997.0136536475,0.1767648578171931,,0,0,0.1767648578171931
Merrylands,AU,-33.83333,150.98333,29508,10.292450580544786,AUS,64997.0136536475,0.1748973286613237,,0,0,0.1748973286613237
Mernda,AU,-37.60075,145.09555,23369,10.059208427532903,AUS,64997.0136536475,0.1709338965152318,,0,0,0.1709338965152318
Melbourne,AU,-37.814,144.96332,4917750,15.40836187013898,AUS,64997.0136536475,0.2618308739056064,,0,0,0.2618308739056064
Mascot,AU,-33.92598,151.19347,15985,9.679468618185965,AUS,64997.0136536475,0.1644810622051326,,0,0,0.1644810622051326
Maryborough,AU,-25.54073,152.70493,15479,9.647304147143718,AUS,64997.0136536475,0.163934498486505,,0,0,0.163934498486505
Marrickville,AU,-33.90741,151.15546,26140,10.171260241993542,AUS,64997.0136536475,0.1728379681323318,,0,0,0.1728379681323318
Maroubra,AU,-33.95,151.23333,30224,10.316424675482994,AUS,64997.0136536475,0.1753047151363865,,0,0,0.1753047151363865
Manly,AU,-33.79798,151.28826,16170,9.690974793577944,AUS,64997.0136536475,0.1646765840901703,,0,0,0.1646765840901703
Maitland,AU,-32.73308,151.5574,67132,11.114431005342864,AUS,64997.0136536475,0.1888650596097559,,0,0,0.1888650596097559
Mackay,AU,-21.15345,149.16554,123183,11.721434451517831,AUS,64997.0136536475,0.19917973446716,,0,0,0.19917973446716
Liverpool,AU,-33.91938,150.92588,27545,10.223612613477275,AUS,64997.0136536475,0.1737275803631545,,0,0,0.1737275803631545
Lilydale,AU,-37.75,145.35,17348,9.761290146826328,AUS,64997.0136536475,0.1658714372838564,,0,0,0.1658714372838564
Lidcombe,AU,-33.86436,151.0397,19791,9.893033094632267,AUS,64997.0136536475,0.1681101159601263,,0,0,0.1681101159601263
Launceston,AU,-41.43876,147.13467,87345,11.377632521726046,AUS,64997.0136536475,0.1933375845691705,,0,0,0.1933375845691705
Lara,AU,-38.02388,144.40617,15919,9.675331459398372,AUS,64997.0136536475,0.1644107603839545,,0,0,0.1644107603839545
Langwarrin,AU,-38.16667,145.16667,22146,10.005457326119846,AUS,64997.0136536475,0.1700205159771199,,0,0,0.1700205159771199
Lalor,AU,-37.66667,145.01667,23219,10.052769255251883,AUS,64997.0136536475,0.1708244770896123,,0,0,0.1708244770896123
Lakemba,AU,-33.91972,151.07592,16921,9.736369829484444,AUS,64997.0136536475,0.1654479718614694,,0,0,0.1654479718614694
Kogarah,AU,-33.9681,151.13564,16416,9.70607266229452,AUS,64997.0136536475,0.1649331388228206,,0,0,0.1649331388228206
Keysborough,AU,-37.99116,145.17385,30018,10.30958579350671,AUS,64997.0136536475,0.1751885035326171,,0,0,0.1751885035326171
Kew,AU,-37.80639,145.03086,24499,10.106428396532818,AUS,64997.0136536475,0.1717362949696063,,0,0,0.1717362949696063
Kensington,AU,-33.92019,151.22241,15021,9.617271072245956,AUS,64997.0136536475,0.1634241531095709,,0,0,0.1634241531095709
Hornsby,AU,-33.70244,151.09931,22335,10.0139550055621,AUS,64997.0136536475,0.1701649151581158,,0,0,0.1701649151581158
Hobart,AU,-42.87936,147.32941,247086,12.417495780313493,AUS,64997.0136536475,0.2110077501606168,,0,0,0.2110077501606168
Hawthorn South,AU,-37.8329,145.0367,21177,9.9607181859904,AUS,64997.0136536475,0.169260273697207,,0,0,0.169260273697207
Hawthorn,AU,-37.81992,145.0358,22322,10.01337281606537,AUS,64997.0136536475,0.1701550221411946,,0,0,0.1701550221411946
Hampton Park,AU,-38.03333,145.25,26082,10.169039040099916,AUS,64997.0136536475,0.1728002237414725,,0,0,0.1728002237414725
Griffith,AU,-34.28853,146.05093,18154,9.806701283848437,AUS,64997.0136536475,0.1666430986578398,,0,0,0.1666430986578398
Greenvale,AU,-37.63333,144.86667,21274,9.965287953441576,AUS,64997.0136536475,0.1693379267414028,,0,0,0.1693379267414028
Greensborough,AU,-37.70462,145.10302,21070,9.955652966516809,AUS,64997.0136536475,0.1691742015467427,,0,0,0.1691742015467427
Granville,AU,-33.8406,151.00748,16716,9.72418144470263,AUS,64997.0136536475,0.1652408573436629,,0,0,0.1652408573436629
Goulburn,AU,-34.75155,149.72086,22645,10.027738514873985,AUS,64997.0136536475,0.1703991352730788,,0,0,0.1703991352730788
Gold Coast,AU,-28.00029,153.43088,640778,13.370439902663708,AUS,64997.0136536475,0.2272009181586836,,0,0,0.2272009181586836
Glen Waverley,AU,-37.87811,145.16476,42642,10.66061841283762,AUS,64997.0136536475,0.1811535229333432,,0,0,0.1811535229333432
Glenroy,AU,-37.7,144.93333,23792,10.077146698751427,AUS,64997.0136536475,0.1712387175772685,,0,0,0.1712387175772685
Glen Iris,AU,-37.86667,145.06667,26131,10.170915895960642,AUS,64997.0136536475,0.1728321167366104,,0,0,0.1728321167366104
Glenferrie,AU,-37.83333,145.05,21177,9.9607181859904,AUS,64997.0136536475,0.169260273697207,,0,0,0.169260273697207
Gladstone,AU,-23.84852,151.25775,30489,10.3251540399823,AUS,64997.0136536475,0.1754530512901423,,0,0,0.1754530512901423
Geelong,AU,-38.14711,144.36069,268984,12.50241089494743,AUS,64997.0136536475,0.2124506938596148,,0,0,0.2124506938596148
Frankston East,AU,-38.13333,145.13333,34457,10.447496470092352,AUS,64997.0136536475,0.1775319890553261,,0,0,0.1775319890553261
Frankston,AU,-38.14458,145.12291,37331,10.527606146685637,AUS,64997.0136536475,0.1788932750121003,,0,0,0.1788932750121003
Footscray,AU,-37.8,144.9,17131,9.74870333873526,AUS,64997.0136536475,0.1656575524471721,,0,0,0.1656575524471721
Fairfield,AU,-33.86667,150.95,17932,9.794397869948424,AUS,64997.0136536475,0.1664340294757546,,0,0,0.1664340294757546
Essendon,AU,-37.74981,144.9109,21240,9.963688555226884,AUS,64997.0136536475,0.1693107485224717,,0,0,0.1693107485224717
Epping,AU,-37.65,145.03333,33489,10.41900216578825,AUS,64997.0136536475,0.177047791665613,,0,0,0.177047791665613
Epping,AU,-33.77271,151.08184,23435,10.06202858066468,AUS,64997.0136536475,0.1709818187515645,,0,0,0.1709818187515645
Engadine,AU,-34.06564,151.01266,17141,9.749286871458828,AUS,64997.0136536475,0.1656674682892488,,0,0,0.1656674682892488
Eltham,AU,-37.73333,145.15,18847,9.844162086451313,AUS,64997.0136536475,0.1672796617633394,,0,0,0.1672796617633394
Eight Mile Plains,AU,-27.58333,153.1,15364,9.639847474564585,AUS,64997.0136536475,0.1638077889041187,,0,0,0.1638077889041187
Eastwood,AU,-33.79176,151.08057,17792,9.786560400506836,AUS,64997.0136536475,0.1663008490967893,,0,0,0.1663008490967893
Earlwood,AU,-33.9209,151.12506,17592,9.775256374639046,AUS,64997.0136536475,0.166108762293756,,0,0,0.166108762293756
Dubbo,AU,-32.24295,148.60484,43516,10.68090694533025,AUS,64997.0136536475,0.1814982814636514,,0,0,0.1814982814636514
Doreen,AU,-37.6,145.15,27122,10.208137355405476,AUS,64997.0136536475,0.1734646127369393,,0,0,0.1734646127369393
Doncaster East,AU,-37.78761,145.14888,30926,10.339384867764494,AUS,64997.0136536475,0.1756948725886045,,0,0,0.1756948725886045
Doncaster,AU,-37.78828,145.12373,25020,10.12747075124778,AUS,64997.0136536475,0.1720938630336539,,0,0,0.1720938630336539
Deer Park,AU,-37.76722,144.76657,18145,9.806205429729577,AUS,64997.0136536475,0.1666346727188357,,0,0,0.1666346727188357
Deception Bay,AU,-27.19354,153.02631,19539,9.880218925596774,AUS,64997.0136536475,0.1678923676293683,,0,0,0.1678923676293683
Dandenong,AU,-37.98333,145.2,30127,10.313210250896931,AUS,64997.0136536475,0.175250093132726,,0,0,0.175250093132726
Croydon,AU,-37.8,145.28333,26502,10.185013213113992,AUS,64997.0136536475,0.1730716693185848,,0,0,0.1730716693185848
Cronulla,AU,-34.06251,151.14961,17703,9.781545881730883,AUS,64997.0136536475,0.1662156384920288,,0,0,0.1662156384920288
Cranbourne,AU,-38.11342,145.28326,21281,9.965616924001678,AUS,64997.0136536475,0.169343516865127,,0,0,0.169343516865127
Craigieburn,AU,-37.6,144.95,65178,11.084892610144374,AUS,64997.0136536475,0.1883631202151744,,0,0,0.1883631202151744
Corio,AU,-38.08333,144.38333,15215,9.630102784785173,AUS,64997.0136536475,0.1636421995531944,,0,0,0.1636421995531944
Coorparoo,AU,-27.49325,153.05826,15965,9.678216740205745,AUS,64997.0136536475,0.1644597893204258,,0,0,0.1644597893204258
Coogee,AU,-33.9205,151.25522,15333,9.63782786411884,AUS,64997.0136536475,0.1637734701119969,,0,0,0.1637734701119969
Coffs Harbour,AU,-30.29626,153.11351,26672,10.191407096789248,AUS,64997.0136536475,0.1731803191649767,,0,0,0.1731803191649767
Coburg,AU,-37.75,144.96667,26574,10.187726203210149,AUS,64997.0136536475,0.1731177705572343,,0,0,0.1731177705572343
Clayton,AU,-37.91667,145.11667,18988,9.851615143125416,AUS,64997.0136536475,0.1674063099014539,,0,0,0.1674063099014539
Wollongong,AU,-34.424,150.89345,280153,12.543094730956822,AUS,64997.0136536475,0.2131420252565504,,0,0,0.2131420252565504
Chatswood,AU,-33.8,151.18333,25140,10.13225525860056,AUS,64997.0136536475,0.1721751651053435,,0,0,0.1721751651053435
Cessnock,AU,-32.83211,151.35623,15076,9.62092568277892,AUS,64997.0136536475,0.1634862550953429,,0,0,0.1634862550953429
Caulfield North,AU,-37.8739,145.02485,16903,9.735305559295892,AUS,64997.0136536475,0.1654298869543333,,0,0,0.1654298869543333
Castle Hill,AU,-33.73333,151.0,39284,10.578598045609922,AUS,64997.0136536475,0.1797597690346301,,0,0,0.1797597690346301
Carrum Downs,AU,-38.09968,145.17248,21976,9.997751730926211,AUS,64997.0136536475,0.1698895765079852,,0,0,0.1698895765079852
Carnegie,AU,-37.89359,145.05534,17909,9.793114495054756,AUS,64997.0136536475,0.1664122213709873,,0,0,0.1664122213709873
Carlton,AU,-37.8,144.96667,16055,9.683837890476171,AUS,64997.0136536475,0.164555308279551,,0,0,0.164555308279551
Carlingford,AU,-33.78269,151.04888,24131,10.091294039560651,AUS,64997.0136536475,0.1714791202001261,,0,0,0.1714791202001261
Capalaba,AU,-27.54333,153.20287,17027,9.742614326948043,AUS,64997.0136536475,0.1655540832211178,,0,0,0.1655540832211178
Canberra,AU,-35.28346,149.12807,367752,12.815166796146247,AUS,64997.0136536475,0.2177652854833177,,0,0,0.2177652854833177
Camberwell,AU,-37.84205,145.0694,21965,9.997251082348292,AUS,64997.0136536475,0.1698810690978023,,0,0,0.1698810690978023
Cairns,AU,-16.92366,145.76613,153075,11.938689809070205,AUS,64997.0136536475,0.2028715065457255,,0,0,0.2028715065457255
Caboolture,AU,-27.08465,152.9511,26341,10.178919902558992,AUS,64997.0136536475,0.1729681270445234,,0,0,0.1729681270445234
Burwood,AU,-33.88333,151.1,18224,9.81054955687686,AUS,64997.0136536475,0.1667084915074205,,0,0,0.1667084915074205
Burnie,AU,-41.05584,145.90375,19972,9.902136640465171,AUS,64997.0136536475,0.1682648104942472,,0,0,0.1682648104942472
Bundaberg,AU,-24.86621,152.3479,50148,10.822753853011813,AUS,64997.0136536475,0.1839086544878629,,0,0,0.1839086544878629
Buderim,AU,-26.68443,153.05705,28774,10.267262233590085,AUS,64997.0136536475,0.174469308671206,,0,0,0.174469308671206
Brunswick,AU,-37.76667,144.96667,24896,10.122502593266558,AUS,64997.0136536475,0.1720094402275901,,0,0,0.1720094402275901
Broken Hill,AU,-31.9652,141.4512,18027,9.79968138381054,AUS,64997.0136536475,0.1665238110543201,,0,0,0.1665238110543201
Brisbane,AU,-27.46794,153.02809,2582007,14.76407794875728,AUS,64997.0136536475,0.2508827002061279,,0,0,0.2508827002061279
Brighton,AU,-37.90561,145.00279,23252,10.05418943494962,AUS,64997.0136536475,0.1708486098880561,,0,0,0.1708486098880561
Boronia,AU,-37.86667,145.28333,23607,10.069340916622776,AUS,64997.0136536475,0.17110607565378,,0,0,0.17110607565378
Blacktown,AU,-33.76667,150.91667,46942,10.756689378738994,AUS,64997.0136536475,0.1827860355372729,,0,0,0.1827860355372729
Bexley,AU,-33.95,151.11667,19664,9.88659568486591,AUS,64997.0136536475,0.1680007264845272,,0,0,0.1680007264845272
Berwick,AU,-38.03333,145.35,50298,10.8257404751745,AUS,64997.0136536475,0.1839594054954958,,0,0,0.1839594054954958
Bentleigh East,AU,-37.91928,145.05301,30159,10.314271822121892,AUS,64997.0136536475,0.1752681321769727,,0,0,0.1752681321769727
Bentleigh,AU,-37.91806,145.03544,17921,9.793784287444163,AUS,64997.0136536475,0.1664236030044232,,0,0,0.1664236030044232
Bendigo,AU,-36.75818,144.28024,103034,11.542824015316093,AUS,64997.0136536475,0.1961446469612004,,0,0,0.1961446469612004
Baulkham Hills,AU,-33.75881,150.99292,36792,10.513062888672096,AUS,64997.0136536475,0.17864614465605,,0,0,0.17864614465605
Bathurst,AU,-33.41665,149.5806,33110,10.407620832440994,AUS,64997.0136536475,0.1768543911937369,,0,0,0.1768543911937369
Banora Point,AU,-28.21298,153.53634,15868,9.672122799562842,AUS,64997.0136536475,0.1643562363394206,,0,0,0.1643562363394206
Bankstown,AU,-33.91667,151.03333,34933,10.461215845988338,AUS,64997.0136536475,0.177765119365385,,0,0,0.177765119365385
Ballarat,AU,-37.56622,143.84957,116201,11.663085334955786,AUS,64997.0136536475,0.198188220877992,,0,0,0.198188220877992
Bairnsdale,AU,-37.82289,147.61041,15411,9.642901705746048,AUS,64997.0136536475,0.1638596887768042,,0,0,0.1638596887768042
Auburn,AU,-33.85,151.03333,37245,10.52529983549145,AUS,64997.0136536475,0.1788540843777836,,0,0,0.1788540843777836
Ashfield,AU,-33.88834,151.12274,23749,10.075337809462788,AUS,64997.0136536475,0.1712079795230071,,0,0,0.1712079795230071
Ascot Vale,AU,-37.77988,144.92276,15197,9.62891911922973,AUS,64997.0136536475,0.1636220857870844,,0,0,0.1636220857870844
Armidale,AU,-30.50123,151.66553,24504,10.106632457343649,AUS,64997.0136536475,0.1717397625296806,,0,0,0.1717397625296806
Albany Creek,AU,-27.35364,152.96848,15532,9.650722071987907,AUS,64997.0136536475,0.1639925785248919,,0,0,0.1639925785248919
Maroochydore,AU,-26.66008,153.09953,18342,9.817003309314352,AUS,64997.0136536475,0.1668181586904034,,0,0,0.1668181586904034
Cheltenham,AU,-37.96944,145.04806,23992,10.085517400120422,AUS,64997.0136536475,0.1713809590480438,,0,0,0.1713809590480438
Randwick,AU,-33.91439,151.24895,28943,10.273118207635076,AUS,64997.0136536475,0.1745688179386214,,0,0,0.1745688179386214
Dee Why,AU,-33.7511,151.28886,21145,9.959206041292472,AUS,64997.0136536475,0.1692345781579234,,0,0,0.1692345781579234
Umina Beach,AU,-33.52314,151.31325,16413,9.705889908189658,AUS,64997.0136536475,0.1649300333228727,,0,0,0.1649300333228727
Palmerston,AU,-12.48602,130.9833,25000,10.12667110305036,AUS,64997.0136536475,0.1720802747892895,,0,0,0.1720802747892895
Hervey Bay,AU,-25.28762,152.76936,52230,10.863431467331688,AUS,64997.0136536475,0.1845998801610092,,0,0,0.1845998801610092
Sydney Central Business District,AU,-33.86482,151.20773,25654,10.152493763376064,AUS,64997.0136536475,0.1725190735257567,,0,0,0.1725190735257567
Kingsford,AU,-33.92399,151.22749,15338,9.638153883748108,AUS,64997.0136536475,0.1637790100912083,,0,0,0.1637790100912083
Springfield Lakes,AU,-27.66757,152.92488,15081,9.621257258762592,AUS,64997.0136536475,0.1634918894924516,,0,0,0.1634918894924516
Bracken Ridge,AU,-27.3171,153.03097,16701,9.723283751713176,AUS,64997.0136536475,0.1652256030459051,,0,0,0.1652256030459051
Kallangur,AU,-27.25204,152.99226,20222,9.91457584952155,AUS,64997.0136536475,0.1684761872132895,,0,0,0.1684761872132895
North Lakes,AU,-27.22426,153.02075,21260,9.964629687478366,AUS,64997.0136536475,0.1693267409739693,,0,0,0.1693267409739693
The Gap,AU,-27.44187,152.93861,16371,9.703327837612294,AUS,64997.0136536475,0.1648864966261146,,0,0,0.1648864966261146
Caroline Springs,AU,-37.74124,144.73631,24488,10.105979316119466,AUS,64997.0136536475,0.1717286638458001,,0,0,0.1717286638458001
Hoppers Crossing,AU,-37.88264,144.7003,37216,10.524520925120765,AUS,64997.0136536475,0.1788408485267068,,0,0,0.1788408485267068
Logan City,AU,-27.63917,153.10944,326615,12.696540447908264,AUS,64997.0136536475,0.2157494942727298,,0,0,0.2157494942727298
Carindale,AU,-27.50578,153.10236,15418,9.643355794171352,AUS,64997.0136536475,0.1638674050006461,,0,0,0.1638674050006461
Parramatta,AU,-33.8178,151.00348,26876,10.199026181265689,AUS,64997.0136536475,0.1733097885766923,,0,0,0.1733097885766923
Ferntree Gully,AU,-37.88461,145.29539,27398,10.218261795359789,AUS,64997.0136536475,0.1736366550983132,,0,0,0.1736366550983132
Adelaide Hills,AU,-34.91119,138.70735,60394,11.008661599039378,AUS,64997.0136536475,0.1870677435603069,,0,0,0.1870677435603069
Canning Vale,AU,-32.05799,115.91814,34504,10.448859520054702,AUS,64997.0136536475,0.1775551510608545,,0,0,0.1775551510608545
Glenmore Park,AU,-33.79068,150.6693,22863,10.037318900169648,AUS,64997.0136536475,0.1705619326343725,,0,0,0.1705619326343725
Southbank,AU,-37.8228,144.96434,22631,10.027120112981404,AUS,64997.0136536475,0.1703886269069511,,0,0,0.1703886269069511
Docklands,AU,-37.8149,144.95052,15495,9.648337205086833,AUS,64997.0136536475,0.1639520530108808,,0,0,0.1639520530108808
Helensvale,AU,-27.91828,153.33275,16839,9.731512287796315,AUS,64997.0136536475,0.1653654287335266,,0,0,0.1653654287335266
Elwood,AU,-37.88214,144.98215,15153,9.62601980249132,AUS,64997.0136536475,0.1635728183411518,,0,0,0.1635728183411518
Balwyn North,AU,-37.79086,145.09386,20015,9.904287232706691,AUS,64997.0136536475,0.1683013550309577,,0,0,0.1683013550309577
Malvern East,AU,-37.87397,145.04253,22296,10.012207419250371,AUS,64997.0136536475,0.170135218811737,,0,0,0.170135218811737
Brighton East,AU,-37.90232,145.01734,16757,9.726631035173233,AUS,64997.0136536475,0.1652824826909279,,0,0,0.1652824826909279
Redbank Plains,AU,-27.64613,152.85965,19094,9.857181799659616,AUS,64997.0136536475,0.1675009028606125,,0,0,0.1675009028606125
Labrador,AU,-27.94402,153.39815,18326,9.816130661317876,AUS,64997.0136536475,0.1668033299766534,,0,0,0.1668033299766534
St Albans,AU,-37.74496,144.80049,37629,10.535556883587484,AUS,64997.0136536475,0.179028380119882,,0,0,0.179028380119882
Endeavour Hills,AU,-37.97695,145.25866,24455,10.104630863570671,AUS,64997.0136536475,0.1717057498908809,,0,0,0.1717057498908809
Kellyville,AU,-33.71028,150.95095,27676,10.228357022355016,AUS,64997.0136536475,0.1738082010503562,,0,0,0.1738082010503562
Taylors Lakes,AU,-37.69863,144.78631,15174,9.627404615927698,AUS,64997.0136536475,0.1635963501685647,,0,0,0.1635963501685647
Cherrybrook,AU,-33.72197,151.04607,18588,9.830325286907144,AUS,64997.0136536475,0.167044536099285,,0,0,0.167044536099285
Roxburgh Park,AU,-37.62581,144.92555,24129,10.091211158619078,AUS,64997.0136536475,0.1714777118226785,,0,0,0.1714777118226785
Prestons,AU,-33.94185,150.8717,15312,9.636457419815208,AUS,64997.0136536475,0.1637501824560681,,0,0,0.1637501824560681
Wyndham Vale,AU,-37.89138,144.62368,20518,9.929106565153749,AUS,64997.0136536475,0.168723104439437,,0,0,0.168723104439437
Ballajura,AU,-31.84062,115.89549,18459,9.823361508056845,AUS,64997.0136536475,0.166926202150652,,0,0,0.166926202150652
Willetton,AU,-32.05251,115.88782,19262,9.865941436462158,AUS,64997.0136536475,0.1676497534248993,,0,0,0.1676497534248993
Glenwood,AU,-33.73333,150.93284,16040,9.682903223616842,AUS,64997.0136536475,0.1645394256930274,,0,0,0.1645394256930274
Cabramatta,AU,-33.89743,150.93446,21634,9.982067652658984,AUS,64997.0136536475,0.1696230604465296,,0,0,0.1696230604465296
Campsie,AU,-33.9125,151.10279,24487,10.105938480625248,AUS,64997.0136536475,0.1717279699373089,,0,0,0.1717279699373089
Casula,AU,-33.95222,150.89949,15695,9.661161181805143,AUS,64997.0136536475,0.1641699680014164,,0,0,0.1641699680014164
Cranebrook,AU,-33.7061,150.7094,15649,9.658226195968298,AUS,64997.0136536475,0.1641200944384096,,0,0,0.1641200944384096
Greenacre,AU,-33.90034,151.05563,24361,10.100779820259904,AUS,64997.0136536475,0.1716403099665071,,0,0,0.1716403099665071
Greystanes,AU,-33.82346,150.94607,23511,10.065266208098754,AUS,64997.0136536475,0.1710368350360721,,0,0,0.1710368350360721
Ellenbrook,AU,-31.76737,115.96936,24668,10.113302673639003,AUS,64997.0136536475,0.1718531080349634,,0,0,0.1718531080349634
Alexandra Hills,AU,-27.53221,153.22889,16043,9.683090226889943,AUS,64997.0136536475,0.1645426033981483,,0,0,0.1645426033981483
Calamvale,AU,-27.62329,153.04785,16927,9.736724334658026,AUS,64997.0136536475,0.1654539958892138,,0,0,0.1654539958892138
Yagoona,AU,-33.9049,151.01996,17908,9.79305865876674,AUS,64997.0136536475,0.1664112725573359,,0,0,0.1664112725573359
Highton,AU,-38.17058,144.3114,18388,9.819507938740854,AUS,64997.0136536475,0.166860719302432,,0,0,0.166860719302432
Pacific Pines,AU,-27.93994,153.31436,16605,9.717519354821976,AUS,64997.0136536475,0.1651276499287417,,0,0,0.1651276499287417
Robina,AU,-28.07071,153.39329,23140,10.049361215025671,AUS,64997.0136536475,0.1707665650183451,,0,0,0.1707665650183451
Paralowie,AU,-34.75705,138.60819,16530,9.712992685053011,AUS,64997.0136536475,0.1650507292338957,,0,0,0.1650507292338957
Baldivis,AU,-32.32889,115.83047,37697,10.537362321631004,AUS,64997.0136536475,0.1790590595279009,,0,0,0.1790590595279009
Dianella,AU,-31.88822,115.87186,24169,10.09286747369753,AUS,64997.0136536475,0.1715058572172447,,0,0,0.1715058572172447
Duncraig,AU,-31.83291,115.7759,15982,9.679280936368654,AUS,64997.0136536475,0.1644778729696605,,0,0,0.1644778729696605
Morley,AU,-31.88775,115.9099,22539,10.023046787593769,AUS,64997.0136536475,0.1703194097925729,,0,0,0.1703194097925729
Thornlie,AU,-32.06003,115.955,23665,10.071794697944505,AUS,64997.0136536475,0.1711477722152482,,0,0,0.1711477722152482
Landsdale,AU,-31.8075,115.86599,15401,9.642252650099197,AUS,64997.0136536475,0.1638486595182327,,0,0,0.1638486595182327
Punchbowl,AU,-33.92893,151.05111,20174,9.91219949313815,AUS,64997.0136536475,0.1684358063166166,,0,0,0.1684358063166166
Parafield Gardens,AU,-34.78254,138.61077,16872,9.733469990198335,AUS,64997.0136536475,0.1653986955359997,,0,0,0.1653986955359997
Hillside,AU,-37.69047,144.74172,17331,9.7603097828598,AUS,64997.0136536475,0.1658547781765311,,0,0,0.1658547781765311
St Clair,AU,-33.79728,150.7847,19856,9.896311868787032,AUS,64997.0136536475,0.1681658314417275,,0,0,0.1681658314417275
Kirwan,AU,-19.30323,146.72531,21034,9.95394299602462,AUS,64997.0136536475,0.1691451443976379,,0,0,0.1691451443976379
Bundoora,AU,-37.69825,145.05967,28068,10.242421043498677,AUS,64997.0136536475,0.1740471878406268,,0,0,0.1740471878406268
Forest Lake,AU,-27.62563,152.96883,22581,10.024908407740469,AUS,64997.0136536475,0.1703510438906035,,0,0,0.1703510438906035
Sunnybank Hills,AU,-27.61025,153.05388,17842,9.789366553431428,AUS,64997.0136536475,0.1663485334307082,,0,0,0.1663485334307082
Rochedale South,AU,-27.59521,153.12332,15073,9.620726684403415,AUS,64997.0136536475,0.1634828735601088,,0,0,0.1634828735601088
Keilor East,AU,-37.73261,144.86504,15078,9.621058326365796,AUS,64997.0136536475,0.163488509078379,,0,0,0.163488509078379
Cranbourne East,AU,-38.11531,145.29814,24679,10.113748478019325,AUS,64997.0136536475,0.1718606834898673,,0,0,0.1718606834898673
Cranbourne North,AU,-38.07758,145.29871,24683,10.113910539440958,AUS,64997.0136536475,0.1718634373636412,,0,0,0.1718634373636412
Cranbourne West,AU,-38.0965,145.26707,19969,9.90198642640986,AUS,64997.0136536475,0.1682622579401402,,0,0,0.1682622579401402
Narre Warren South,AU,-38.04369,145.2923,30909,10.338835035126165,AUS,64997.0136536475,0.1756855294045976,,0,0,0.1756855294045976
Dandenong North,AU,-37.96649,145.2081,22550,10.02353468984558,AUS,64997.0136536475,0.1703277006072649,,0,0,0.1703277006072649
Frankston South,AU,-38.16604,145.13643,18801,9.841718526138497,AUS,64997.0136536475,0.1672381388852075,,0,0,0.1672381388852075
Sunshine West,AU,-37.79117,144.81637,18552,9.828386780026875,AUS,64997.0136536475,0.1670115954820533,,0,0,0.1670115954820533
Altona Meadows,AU,-37.88413,144.78367,18479,9.824444345195674,AUS,64997.0136536475,0.1669446025618539,,0,0,0.1669446025618539
Taylors Hill,AU,-37.70988,144.75483,15419,9.64342064711732,AUS,64997.0136536475,0.1638685070323651,,0,0,0.1638685070323651
Hurstville,AU,-33.9677,151.10149,29744,10.300416329622006,AUS,64997.0136536475,0.1750326888676701,,0,0,0.1750326888676701
West Pennant Hills,AU,-33.7457,151.04764,16162,9.690479958409808,AUS,64997.0136536475,0.1646681754659698,,0,0,0.1646681754659698
Melbourne City Centre,AU,-37.81501,144.96657,60057,11.003066040949562,AUS,64997.0136536475,0.1869726594834275,,0,0,0.1869726594834275
Adelaide city centre,AU,-34.92873,138.60334,19820,9.894497260697996,AUS,64997.0136536475,0.1681349962091601,,0,0,0.1681349962091601
Wollongong city centre,AU,-34.4279,150.89268,19108,9.857914707241372,AUS,64997.0136536475,0.1675133569965057,,0,0,0.1675133569965057
Tanki Leendert,AW,12.53914,-70.02004,21500,9.975854724662028,ABW,30559.5335346581,0.0797017430934598,,0,0,0.0797017430934598
San Nicolas,AW,12.43624,-69.90713,15200,9.62911649414402,ABW,30559.5335346581,0.0769314901043994,,0,0,0.0769314901043994
Oranjestad,AW,12.52398,-70.02703,29998,10.308919326755392,ABW,30559.5335346581,0.0823627511055297,,0,0,0.0823627511055297
Xankandi,AZ,39.8177,46.7528,53100,10.879951039444416,AZE,7770.594223351,0.0221030473825884,,0,0,0.0221030473825884
Əhmədbəyli,AZ,39.88074,48.39158,17242,9.755161543000131,AZE,7770.594223351,0.019817993392436,,0,0,0.019817993392436
Şuşa,AZ,39.76006,46.74989,18662,9.83429823318313,AZE,7770.594223351,0.0199787626832604,,0,0,0.0199787626832604
Salyan,AZ,39.59621,48.98479,36555,10.506600610392091,AZE,7770.594223351,0.021344571338557,,0,0,0.021344571338557
Saatlı,AZ,39.93214,48.36892,87000,11.373674891823535,AZE,7770.594223351,0.0231060667586395,,0,0,0.0231060667586395
Neftçala,AZ,39.3768,49.247,18661,9.834244649793968,AZE,7770.594223351,0.0199786538265031,,0,0,0.0199786538265031
Nakhchivan,AZ,39.20889,45.41222,64754,11.078366196657688,AZE,7770.594223351,0.0225061355587584,,0,0,0.0225061355587584
Lerik,AZ,38.77388,48.41497,87000,11.373674891823535,AZE,7770.594223351,0.0231060667586395,,0,0,0.0231060667586395
Lankaran,AZ,38.75428,48.85062,240300,12.389647583180738,AZE,7770.594223351,0.0251700551401195,,0,0,0.0251700551401195
Imishli,AZ,39.87095,48.05995,34178,10.439366699366223,AZE,7770.594223351,0.0212079830105642,,0,0,0.0212079830105642
Fizuli,AZ,39.60094,47.14529,26765,10.19488770435632,AZE,7770.594223351,0.0207113143407181,,0,0,0.0207113143407181
Jalilabad,AZ,39.20963,48.49186,36259,10.49847048430884,AZE,7770.594223351,0.021328054668455,,0,0,0.021328054668455
Pushkino,AZ,39.45833,48.545,18182,9.808242370619396,AZE,7770.594223351,0.0199258291762297,,0,0,0.0199258291762297
Beylagan,AZ,39.77556,47.61861,15599,9.655026193237628,AZE,7770.594223351,0.0196145645008492,,0,0,0.0196145645008492
Astara,AZ,38.45598,48.87498,15190,9.628458426207663,AZE,7770.594223351,0.0195605910398121,,0,0,0.0195605910398121
Şirvan,AZ,39.93778,48.929,70220,11.159402690578014,AZE,7770.594223351,0.022670764375409,,0,0,0.022670764375409
Ağdam,AZ,39.99096,46.92736,39451,10.582840022073883,AZE,7770.594223351,0.0214994546944392,,0,0,0.0214994546944392
Zaqatala,AZ,41.6316,46.64479,32171,10.37885178802396,AZE,7770.594223351,0.0210850445940307,,0,0,0.0210850445940307
Zabrat,AZ,40.47746,49.94174,21396,9.97100600426695,AZE,7770.594223351,0.0202564898835832,,0,0,0.0202564898835832
Yevlakh,AZ,40.61832,47.15014,127400,11.755094871382958,AZE,7770.594223351,0.0238809364111134,,0,0,0.0238809364111134
Göygöl,AZ,40.58584,46.3189,17816,9.78790833668397,AZE,7770.594223351,0.0198845197885381,,0,0,0.0198845197885381
Xaçmaz,AZ,41.46426,48.80565,37175,10.523418670764814,AZE,7770.594223351,0.0213787378880161,,0,0,0.0213787378880161
Ujar,AZ,40.51902,47.65423,15741,9.664087578702397,AZE,7770.594223351,0.0196329730609202,,0,0,0.0196329730609202
Tovuz,AZ,40.99249,45.62838,177200,12.085039960478053,AZE,7770.594223351,0.0245512328041286,,0,0,0.0245512328041286
Terter,AZ,40.34201,46.93161,18185,9.808407346285858,AZE,7770.594223351,0.0199261643307685,,0,0,0.0199261643307685
Sumqayıt,AZ,40.58972,49.66861,358675,12.790174753002017,AZE,7770.594223351,0.0259837417992302,,0,0,0.0259837417992302
Qaraçuxur,AZ,40.39667,49.97361,72989,11.198077724445678,AZE,7770.594223351,0.0227493342240233,,0,0,0.0227493342240233
Shamkhor,AZ,40.82975,46.0178,35421,10.475088375016576,AZE,7770.594223351,0.0212805529960929,,0,0,0.0212805529960929
Shamakhi,AZ,40.63141,48.64137,29403,10.288885998493978,AZE,7770.594223351,0.0209022755630319,,0,0,0.0209022755630319
Sheki,AZ,41.19194,47.17056,68400,11.133142723386811,AZE,7770.594223351,0.0226174162218201,,0,0,0.0226174162218201
Sabunçu,AZ,40.4425,49.94806,20996,9.95213484935765,AZE,7770.594223351,0.0202181523920253,,0,0,0.0202181523920253
Sabirabad,AZ,40.00869,48.47701,30612,10.329180034324262,AZE,7770.594223351,0.0209841344776505,,0,0,0.0209841344776505
Qusar,AZ,41.4275,48.4302,16022,9.68178046900788,AZE,7770.594223351,0.0196689168617093,,0,0,0.0196689168617093
Quba,AZ,41.36108,48.51341,22405,10.017084059118668,AZE,7770.594223351,0.0203500992597644,,0,0,0.0203500992597644
Hacıqabul,AZ,40.03874,48.94286,23102,10.04771775820736,AZE,7770.594223351,0.0204123328212949,,0,0,0.0204123328212949
Qazax,AZ,41.09246,45.36561,18903,9.847128818866745,AZE,7770.594223351,0.0200048285214506,,0,0,0.0200048285214506
Hacı Zeynalabdin,AZ,40.62333,49.55861,19019,9.853246336099382,AZE,7770.594223351,0.0200172564977132,,0,0,0.0200172564977132
Mingelchaur,AZ,40.76395,47.05953,106048,11.571656530433993,AZE,7770.594223351,0.0235082742247599,,0,0,0.0235082742247599
Maştağa,AZ,40.52983,50.00616,40092,10.59895703446564,AZE,7770.594223351,0.0215321970374212,,0,0,0.0215321970374212
Mardakan,AZ,40.49182,50.14292,15267,9.63351441386512,AZE,7770.594223351,0.0195708624770964,,0,0,0.0195708624770964
Lokbatan,AZ,40.3256,49.73376,30694,10.331855053861595,AZE,7770.594223351,0.0209895688847879,,0,0,0.0209895688847879
Kyurdarmir,AZ,40.34257,48.15649,19088,9.8568675319009,AZE,7770.594223351,0.020024613099052,,0,0,0.020024613099052
Khirdalan,AZ,40.44808,49.75502,37949,10.544024782823776,AZE,7770.594223351,0.0214206000130899,,0,0,0.0214206000130899
İsmayıllı,AZ,40.78485,48.15141,28776,10.267331735953192,AZE,7770.594223351,0.0208584872330561,,0,0,0.0208584872330561
Yeni Suraxanı,AZ,40.43026,50.03598,16127,9.688312170871097,AZE,7770.594223351,0.0196821862702984,,0,0,0.0196821862702984
Göyçay,AZ,40.65055,47.74219,42500,10.65728288404746,AZE,7770.594223351,0.0216506882891063,,0,0,0.0216506882891063
Hövsan,AZ,40.37444,50.08528,36293,10.49940771733497,AZE,7770.594223351,0.0213299586941174,,0,0,0.0213299586941174
Ganja,AZ,40.68278,46.36056,335600,12.723678233308531,AZE,7770.594223351,0.0258486515106587,,0,0,0.0258486515106587
Divichibazar,AZ,41.20117,48.98712,23248,10.054017399337823,AZE,7770.594223351,0.0204251307894011,,0,0,0.0204251307894011
Buzovna,AZ,40.51903,50.11438,24795,10.11843762882181,AZE,7770.594223351,0.0205560030129542,,0,0,0.0205560030129542
Biny Selo,AZ,40.45076,50.08686,24596,10.110379763264287,AZE,7770.594223351,0.0205396331429452,,0,0,0.0205396331429452
Barda,AZ,40.37577,47.12619,37372,10.5287037975555,AZE,7770.594223351,0.0213894748304393,,0,0,0.0213894748304393
Bilajari,AZ,40.4444,49.80566,42194,10.650057009592066,AZE,7770.594223351,0.0216360086416622,,0,0,0.0216360086416622
Baku,AZ,40.37767,49.89201,1116513,13.925721889368688,AZE,7770.594223351,0.0282906503569324,,0,0,0.0282906503569324
Amirdzhan,AZ,40.42639,49.98361,26798,10.196119852369948,AZE,7770.594223351,0.0207138174977478,,0,0,0.0207138174977478
Aghsu,AZ,40.57028,48.40087,17209,9.753245889205584,AZE,7770.594223351,0.0198141016665968,,0,0,0.0198141016665968
Ağdaş,AZ,40.64699,47.4738,23528,10.065988981880777,AZE,7770.594223351,0.0204494515290103,,0,0,0.0204494515290103
Agdzhabedy,AZ,40.05015,47.45937,43000,10.66897865021924,AZE,7770.594223351,0.0216744486969366,,0,0,0.0216744486969366
Bakıxanov,AZ,40.41894,49.96693,66686,11.10776531035902,AZE,7770.594223351,0.0225658610116388,,0,0,0.0225658610116388
Zenica,BA,44.20169,17.90397,164423,12.010203736350844,BIH,7655.59421024383,0.0240381069309519,,0,0,0.0240381069309519
Visoko,BA,43.98889,18.17806,17890,9.792053072089823,BIH,7655.59421024383,0.0195985367099167,,0,0,0.0195985367099167
Velika Kladuša,BA,45.18497,15.80579,19330,9.869465303921691,BIH,7655.59421024383,0.0197534752561219,,0,0,0.0197534752561219
Tuzla,BA,44.53842,18.66709,142486,11.867006046459132,BIH,7655.59421024383,0.0237515005204824,,0,0,0.0237515005204824
Trebinje,BA,42.71197,18.34362,33178,10.409672424652523,BIH,7655.59421024383,0.0208346856017621,,0,0,0.0208346856017621
Travnik,BA,44.22637,17.66583,31127,10.34586301466439,BIH,7655.59421024383,0.0207069727457467,,0,0,0.0207069727457467
Sarajevo,BA,43.84864,18.35644,696731,13.45415611078013,BIH,7655.59421024383,0.0269281396349499,,0,0,0.0269281396349499
Prijedor,BA,44.97991,16.71401,36347,10.500894460815235,BIH,7655.59421024383,0.0210172641081618,,0,0,0.0210172641081618
Mostar,BA,43.34333,17.80806,104518,11.5571241520419,BIH,7655.59421024383,0.0231312800581582,,0,0,0.0231312800581582
Lukavac,BA,44.54245,18.52618,44520,10.703716266952132,BIH,7655.59421024383,0.021423206619286,,0,0,0.021423206619286
Gradačac,BA,44.87851,18.42764,15659,9.658864969544794,BIH,7655.59421024383,0.019331964225287,,0,0,0.019331964225287
Gračanica,BA,44.70307,18.3101,15758,9.665166909622071,BIH,7655.59421024383,0.0193445773926217,,0,0,0.0193445773926217
Goražde,BA,43.66795,18.97564,17650,9.77854771798028,BIH,7655.59421024383,0.0195715060988336,,0,0,0.0195715060988336
Doboj,BA,44.73179,18.08698,27235,10.212294906602857,BIH,7655.59421024383,0.0204396396900692,,0,0,0.0204396396900692
Cazin,BA,44.96694,15.94306,21741,9.987001152763945,BIH,7655.59421024383,0.0199887201665924,,0,0,0.0199887201665924
Bugojno,BA,44.05722,17.45083,41378,10.63052878474363,BIH,7655.59421024383,0.0212767237983484,,0,0,0.0212767237983484
Brčko,BA,44.86995,18.81012,38968,10.57052173723882,BIH,7655.59421024383,0.021156621270848,,0,0,0.021156621270848
Bosanska Krupa,BA,44.8825,16.15139,15193,9.628655892063168,BIH,7655.59421024383,0.0192715015511534,,0,0,0.0192715015511534
Bijeljina,BA,44.75874,19.21437,37692,10.537229679803534,BIH,7655.59421024383,0.0210899880934141,,0,0,0.0210899880934141
Bihać,BA,44.81694,15.87083,75641,11.233766963459324,BIH,7655.59421024383,0.0224840891489388,,0,0,0.0224840891489388
Banja Luka,BA,44.77842,17.19386,221106,12.30640202622678,BIH,7655.59421024383,0.0246309400186415,,0,0,0.0246309400186415
Konjic,BA,43.65126,17.96082,15950,9.677276802172448,BIH,7655.59421024383,0.0193688150240923,,0,0,0.0193688150240923
Bridgetown,BB,13.10732,-59.62021,98511,11.497933647150992,BRB,22164.0260273876,0.0666253390810861,,0,0,0.0666253390810861
Thākurgaon,BD,26.03097,88.46989,71096,11.17180042080831,BGD,2716.48592677835,0.0079341719962267,,0,0,0.0079341719962267
Teknāf,BD,20.85829,92.29773,40557,10.610488327384608,BGD,2716.48592677835,0.0075355301905165,,0,0,0.0075355301905165
Tungi,BD,23.89154,90.40232,337579,12.72955779824292,BGD,2716.48592677835,0.0090404856158235,,0,0,0.0090404856158235
Sylhet,BD,24.89904,91.87198,237000,12.37581963951765,BGD,2716.48592677835,0.0087892620630175,,0,0,0.0087892620630175
Dohār,BD,23.59311,90.14251,45543,10.72643417063092,BGD,2716.48592677835,0.0076178745063754,,0,0,0.0076178745063754
Jamālpur,BD,24.91965,89.94812,167900,12.031129798974042,BGD,2716.48592677835,0.0085444645928505,,0,0,0.0085444645928505
Shibganj,BD,25.00146,89.32266,378701,12.844504895101185,BGD,2716.48592677835,0.0091221206256328,,0,0,0.0091221206256328
Shibganj,BD,24.68501,88.15638,35961,10.490218104391584,BGD,2716.48592677835,0.0074501147159011,,0,0,0.0074501147159011
Sātkhira,BD,22.70817,89.07185,128918,11.76693957915092,BGD,2716.48592677835,0.0083568376603201,,0,0,0.0083568376603201
Sirajganj,BD,24.45771,89.70802,127481,11.755730457143692,BGD,2716.48592677835,0.0083488769826691,,0,0,0.0083488769826691
Netrakona,BD,24.88352,90.72898,79016,11.277418298172556,BGD,2716.48592677835,0.0080091814283075,,0,0,0.0080091814283075
Narsingdi,BD,23.92298,90.71768,281080,12.546398163005795,BGD,2716.48592677835,0.0089104063095346,,0,0,0.0089104063095346
Sandwīp,BD,22.51409,91.45491,52152,10.861936985140591,BGD,2716.48592677835,0.0077141081120429,,0,0,0.0077141081120429
Shāhzādpur,BD,24.17687,89.5988,102420,11.5368470486869,BGD,2716.48592677835,0.0081934267826653,,0,0,0.0081934267826653
Rāmganj,BD,23.1006,90.84989,55241,10.9194788125159,BGD,2716.48592677835,0.0077549741084066,,0,0,0.0077549741084066
Rājshāhi,BD,24.374,88.60114,763580,13.54577448838692,BGD,2716.48592677835,0.0096201597383339,,0,0,0.0096201597383339
Pirojpur,BD,22.57965,89.97521,54418,10.904468636571195,BGD,2716.48592677835,0.0077443139360841,,0,0,0.0077443139360841
Panchagarh,BD,26.33338,88.55777,48531,10.789978653171763,BGD,2716.48592677835,0.0076630035665895,,0,0,0.0076630035665895
Patiya,BD,22.29543,91.979,51360,10.84663440857928,BGD,2716.48592677835,0.0077032402778667,,0,0,0.0077032402778667
Parbatipur,BD,25.66369,88.93093,48020,10.779393694214807,BGD,2716.48592677835,0.0076554861672649,,0,0,0.0076554861672649
Nārāyanganj,BD,23.61352,90.50298,223622,12.317716877227149,BGD,2716.48592677835,0.0087479976927187,,0,0,0.0087479976927187
Nālchiti,BD,22.63696,90.27195,38703,10.56369823284981,BGD,2716.48592677835,0.0075023000356824,,0,0,0.0075023000356824
Nāgarpur,BD,24.05783,89.87696,238422,12.38180168602984,BGD,2716.48592677835,0.0087935104906773,,0,0,0.0087935104906773
Nageswari,BD,25.96817,89.69153,49425,10.808231880509911,BGD,2716.48592677835,0.0076759669422077,,0,0,0.0076759669422077
Mymensingh,BD,24.75636,90.40646,225126,12.324419966392156,BGD,2716.48592677835,0.0087527582022461,,0,0,0.0087527582022461
Muktāgācha,BD,24.76484,90.25698,24684,10.113951050692965,BGD,2716.48592677835,0.0071828912238848,,0,0,0.0071828912238848
Mirzāpur,BD,24.10287,90.09841,41137,10.624687547538109,BGD,2716.48592677835,0.0075456144249878,,0,0,0.0075456144249878
Maulavi Bāzār,BD,24.48888,91.77075,57441,10.958531022057445,BGD,2716.48592677835,0.0077827088454825,,0,0,0.0077827088454825
Morrelgonj,BD,22.45566,89.85584,31647,10.36243023442244,BGD,2716.48592677835,0.0073593602357658,,0,0,0.0073593602357658
Mehendiganj,BD,22.82257,90.52859,39424,10.58215541183124,BGD,2716.48592677835,0.0075154082570154,,0,0,0.0075154082570154
Mathba,BD,22.28616,89.95883,29760,10.300954090533024,BGD,2716.48592677835,0.0073157001021337,,0,0,0.0073157001021337
Lalmonirhat,BD,25.91719,89.44595,65127,11.084109843253811,BGD,2716.48592677835,0.0078718944672199,,0,0,0.0078718944672199
Lākshām,BD,23.24018,91.12143,82290,11.318017024670777,BGD,2716.48592677835,0.0080380144960971,,0,0,0.0080380144960971
Comilla,BD,23.46186,91.18503,1030000,13.845070331079134,BGD,2716.48592677835,0.00983271855645,,0,0,0.00983271855645
Rangpur,BD,25.74664,89.25166,1031388,13.846416995426743,BGD,2716.48592677835,0.0098336749525682,,0,0,0.0098336749525682
Kushtia,BD,23.9028,89.11943,135724,11.818386058773651,BGD,2716.48592677835,0.0083933747628956,,0,0,0.0083933747628956
Kālīganj,BD,23.40964,89.13801,45631,10.728364503773967,BGD,2716.48592677835,0.0076192454219476,,0,0,0.0076192454219476
