name,countrycode,latitude,longitude,population,log_population,iso3,gdp_per_capita,econ_viability
les Escaldes,AD,42.50729,1.53414,15853,9.671177113397102,AND,42414.0590092117,0.10724082735306656
Andorra la Vella,AD,42.50779,1.52109,20430,9.924808634239811,AND,42414.0590092117,0.11005327239662907
Umm Al Quwain City,AE,25.56473,55.55517,62747,11.046881983976132,ARE,49899.0652978649,0.14411298298745331
Ras Al Khaimah City,AE,25.78953,55.9432,351943,12.771227351014842,ARE,49899.0652978649,0.16660806846994528
Zayed City,AE,23.65416,53.70522,63482,11.058527432502881,ARE,49899.0652978649,0.1442649046181769
Khawr Fakkān,AE,25.33132,56.34199,40677,10.61344268474544,ARE,49899.0652978649,0.13845851592183853
Dubai,AE,25.07725,55.30927,3478300,15.06205451414245,ARE,49899.0652978649,0.1964932375580084
Dibba Al-Fujairah,AE,25.59246,56.26176,30000,10.308985993422082,ARE,49899.0652978649,0.13448670178996464
Dibba Al-Hisn,AE,25.61955,56.27291,26395,10.180967762503313,ARE,49899.0652978649,0.13281662971340571
Sharjah,AE,25.33737,55.41206,1274749,14.058260638917401,ARE,49899.0652978649,0.183398164226633
Ar Ruways,AE,24.11028,52.73056,25000,10.12667110305036,ARE,49899.0652978649,0.13210829829723153
Al Fujairah City,AE,25.11641,56.34141,86512,11.368049970645048,ARE,49899.0652978649,0.14830280566013773
Al Ain City,AE,24.19167,55.76056,846747,13.649158408704983,ARE,49899.0652978649,0.17806118834255544
Ajman City,AE,25.40177,55.47878,490035,13.102234136775822,ARE,49899.0652978649,0.17092624398356965
Adh Dhayd,AE,25.28812,55.88157,20165,9.91175329695316,ARE,49899.0652978649,0.12930457085823893
Abu Dhabi,AE,24.45118,54.39696,1807000,14.407179122977643,ARE,49899.0652978649,0.18795000823386687
Khalifah A City,AE,24.42588,54.605,85374,11.354808596873092,ARE,49899.0652978649,0.14813006425890826
Bani Yas City,AE,24.30978,54.62944,80498,11.296000040969249,ARE,49899.0652978649,0.14736287253650365
Musaffah,AE,24.35893,54.48267,243341,12.40222314026057,ARE,49899.0652978649,0.16179419450769367
Al Shamkhah City,AE,24.39268,54.70779,61710,11.030217476012854,ARE,49899.0652978649,0.14389558481518264
Reef Al Fujairah City,AE,25.14479,56.24764,82310,11.318260035084968,ARE,49899.0652978649,0.1476532670711744
Zaranj,AF,30.95962,61.86037,49851,10.816813894946268,AFG,357.261152798144,0.0010103134524154472
Bāzār-e Yakāwlang,AF,34.73525,66.97379,65000,11.082157933374816,AFG,357.261152798144,0.001035097150660256
Taloqan,AF,36.73605,69.53451,64256,11.070645946239251,AFG,357.261152798144,0.0010340219065467812
Shīnḏanḏ,AF,33.30294,62.1474,29264,10.284147541725321,AFG,357.261152798144,0.0009605612807006659
Shibirghān,AF,36.66757,65.7529,55641,10.92669359075441,AFG,357.261152798144,0.001020576449994998
Shahrak,AF,34.10737,64.3052,15967,9.678341998551245,AFG,357.261152798144,0.0009039777528928541
Sar-e Pul,AF,36.21544,65.93249,52121,10.861342403487976,AFG,357.261152798144,0.0010144725099376169
Sang-e Chārak,AF,35.84972,66.43694,15377,9.640693195592126,AFG,357.261152798144,0.0009004612745225728
Aībak,AF,36.26468,68.01551,47823,10.775282884523719,AFG,357.261152798144,0.001006434367600841
Rustāq,AF,37.12604,69.83045,25636,10.151791899508838,AFG,357.261152798144,0.0009481989818635863
Qarqīn,AF,37.41853,66.04358,15018,9.61707134520558,AFG,357.261152798144,0.0008982549433932537
Qarāwul,AF,37.21959,68.7802,24544,10.108263446492153,AFG,357.261152798144,0.0009441333316570927
Pul-e Khumrī,AF,35.94458,68.71512,56369,10.93969238107562,AFG,357.261152798144,0.00102179056469219
Paghmān,AF,34.58787,68.95091,49157,10.80279487936987,AFG,357.261152798144,0.0010090040465068298
Nahrīn,AF,36.0649,69.13343,22363,10.015207802146536,AFG,357.261152798144,0.0009354417363113054
Maymana,AF,35.92139,64.78361,75900,11.237185138527495,AFG,357.261152798144,0.0010495770217551356
Mehtar Lām,AF,34.67139,70.20944,17345,9.7611172112444,AFG,357.261152798144,0.0009117091340299112
Mazār-e Sharīf,AF,36.70904,67.11087,523300,13.167912103308215,AFG,357.261152798144,0.0012299110317884009
Lashkar Gāh,AF,31.59382,64.37161,43934,10.690466547929944,AFG,357.261152798144,0.0009985123411448507
Kushk,AF,33.29565,61.95221,16952,9.738200088297953,AFG,357.261152798144,0.0009095686259442288
Kunduz,AF,36.72895,68.857,161902,11.994752669450813,AFG,357.261152798144,0.0011203354423989977
Khōst,AF,33.33951,69.92041,96123,11.473394303632896,AFG,357.261152798144,0.0010716394607882508
Khulm,AF,36.69736,67.69826,64933,11.081126648410208,AFG,357.261152798144,0.0010350008264484191
Khāsh,AF,31.52919,62.79055,15133,9.624699147254466,AFG,357.261152798144,0.0008989673963481807
Khanabad,AF,36.68304,69.11279,71531,11.177900181007926,AFG,357.261152798144,0.0010440396804742723
Karukh,AF,34.48108,62.5863,17484,9.769098649497476,AFG,357.261152798144,0.0009124546173593852
Kandahār,AF,31.61332,65.71013,523300,13.167912103308215,AFG,357.261152798144,0.0012299110317884009
Kabul,AF,34.52813,69.17233,4434550,15.3049369284654,AFG,357.261152798144,0.0014295137012963614
Jalālābād,AF,34.42647,70.45153,271900,12.513193308436527,AFG,357.261152798144,0.0011687589021102576
Jabal os Saraj,AF,35.11833,69.23778,15032,9.618003063627834,AFG,357.261152798144,0.0008983419678780057
Herāt,AF,34.34817,62.19967,574300,13.26090892810109,AFG,357.261152798144,0.0012385971332627048
Ghormach,AF,35.73062,63.78264,30000,10.308985993422082,AFG,357.261152798144,0.0009628812449831365
Ghazni,AF,33.55391,68.42096,141000,11.856522261533737,AFG,357.261152798144,0.0011074244279350488
Gereshk,AF,31.82089,64.57005,43588,10.682560103927765,AFG,357.261152798144,0.0009977738624381122
Gardez,AF,33.59744,69.22592,103601,11.548311913640486,AFG,357.261152798144,0.0010786369251015498
Fayzabad,AF,37.11664,70.58002,44421,10.701490121198454,AFG,357.261152798144,0.0009995419663630554
Farah,AF,32.37451,62.11638,43561,10.681940489675172,AFG,357.261152798144,0.0009977159891474388
Eslam Qaleh,AF,34.66667,61.06667,18086,9.802948727157515,AFG,357.261152798144,0.0009156162866972689
Charikar,AF,35.01361,69.17139,53676,10.890739883347626,AFG,357.261152798144,0.0010172182971590455
Baraki Barak,AF,33.96744,68.9492,22305,10.012610979554482,AFG,357.261152798144,0.0009351991875512205
Bāmyān,AF,34.82156,67.82734,61863,11.032693706288871,AFG,357.261152798144,0.0010304770865153408
Balkh,AF,36.75635,66.8972,114883,11.65167820261739,AFG,357.261152798144,0.001088291556612629
Baghlān,AF,36.13068,68.70829,108449,11.594044516255021,AFG,357.261152798144,0.0010829084475742644
Ārt Khwājah,AF,37.08571,69.47958,18623,9.832206350531164,AFG,357.261152798144,0.0009183490110250778
Āsmār,AF,35.03333,71.35809,15708,9.661989075499939,AFG,357.261152798144,0.0009024503550559764
Asadābād,AF,34.87311,71.14697,48400,10.78727575364831,AFG,357.261152798144,0.001007554527116139
Andkhōy,AF,36.95293,65.12376,29208,10.282232159944682,AFG,357.261152798144,0.0009603823799635092
Bāzārak,AF,35.31292,69.51519,65000,11.082157933374816,AFG,357.261152798144,0.001035097150660256
Markaz-e Woluswalī-ye Āchīn,AF,34.12583,70.70778,15098,9.62238379544447,AFG,357.261152798144,0.0008987511375585378
Saint John’s,AG,17.12096,-61.84329,24226,10.095222992690658,ATG,20117.7653310355,0.053096590818555764
Sarandë,AL,39.87534,20.00477,15147,9.625623789021686,ALB,6846.42614266044,0.017229147689137966
Pogradec,AL,40.9025,20.6525,61530,11.027296391837153,ALB,6846.42614266044,0.019738036963749907
Kukës,AL,42.07694,20.42194,17832,9.788805952452513,ALB,6846.42614266044,0.017521231574359964
Korçë,AL,40.61861,20.78083,58259,10.972671030513425,ALB,6846.42614266044,0.019640261646695398
Gjirokastër,AL,40.07583,20.13889,23437,10.062113915818548,ALB,6846.42614266044,0.0180104324166806
Elbasan,AL,41.1125,20.08222,100903,11.521924848767028,ALB,6846.42614266044,0.02062338496014832
Burrel,AL,41.61028,20.00889,15405,9.64251232291291,ALB,6846.42614266044,0.017259376903476967
Vlorë,AL,40.4686,19.48318,89546,11.40251890609017,ALB,6846.42614266044,0.02040965724063297
Tirana,AL,41.3275,19.81889,418495,12.944422610920947,ALB,6846.42614266044,0.0231695497146415
Shkodër,AL,42.06828,19.51258,88245,11.387883647989263,ALB,6846.42614266044,0.020383461221671915
Patos Fshat,AL,40.64278,19.65083,22679,10.02923875784169,ALB,6846.42614266044,0.01795158833919514
Patos,AL,40.68333,19.61944,16000,9.680406499268875,ALB,6846.42614266044,0.01732720464901381
Lushnjë,AL,40.94194,19.705,41469,10.632725553240427,ALB,6846.42614266044,0.019031784631328246
Lezhë,AL,41.78361,19.64361,18695,9.836064876218694,ALB,6846.42614266044,0.017605821518351536
Laç,AL,41.63556,19.71306,24825,10.119646770075892,ALB,6846.42614266044,0.018113411928939113
Krujë,AL,41.50917,19.79278,21286,9.965851836732678,ALB,6846.42614266044,0.01783813048448525
Kavajë,AL,41.18556,19.55694,29354,10.287218168498287,ALB,6846.42614266044,0.01841335221698441
Fier-Çifçi,AL,40.71667,19.56667,60995,11.018563567234903,ALB,6846.42614266044,0.019722405859926063
Fier,AL,40.72389,19.55611,56297,10.938414289518105,ALB,6846.42614266044,0.019578944638790927
Durrës,AL,41.32355,19.45469,122034,11.712063167817591,ALB,6846.42614266044,0.02096371835069937
Berat,AL,40.70583,19.95222,46866,10.755069082040832,ALB,6846.42614266044,0.01925077041061006
Kapan,AM,39.20755,46.40576,33160,10.409129765609965,ARM,6571.97445545099,0.017884684044573673
Goris,AM,39.51111,46.34168,20379,9.922309306776716,ARM,6571.97445545099,0.017048242354564938
Hats’avan,AM,39.46405,45.97047,15208,9.629642636872369,ARM,6571.97445545099,0.016545390431351347
Artashat,AM,39.96144,44.54447,20562,9.931248623321519,ARM,6571.97445545099,0.017063601645454597
Ararat,AM,39.83069,44.70569,28832,10.269275843491394,ARM,6571.97445545099,0.017644390834112532
Yerevan,AM,40.18111,44.51361,1093485,13.904881316090618,ARM,6571.97445545099,0.023890989411736268
Vagharshapat,AM,40.16557,44.29462,46200,10.740756721857226,ARM,6571.97445545099,0.01845447647359508
Stepanavan,AM,41.00995,44.38531,23782,10.076726318721697,ARM,6571.97445545099,0.017313557470422878
Spitak,AM,40.83221,44.26731,15059,9.619797501353885,ARM,6571.97445545099,0.016528474786903738
Sevan,AM,40.5473,44.94171,17083,9.745897631961357,ARM,6571.97445545099,0.016745136606352386
Masis,AM,40.06572,44.41913,18911,9.847551920205825,ARM,6571.97445545099,0.01691979624341781
Vanadzor,AM,40.80456,44.4939,101098,11.52385551376281,ARM,6571.97445545099,0.019799975548377535
Gavar,AM,40.35398,45.12386,21680,9.98419157995109,ARM,6571.97445545099,0.01715456679557058
Hrazdan,AM,40.49748,44.7662,40795,10.616339316370409,ARM,6571.97445545099,0.018240705866744842
Armavir,AM,40.15446,44.03815,25963,10.16446624215336,ARM,6571.97445545099,0.01746430982379009
Gyumri,AM,40.7942,43.84528,148381,11.90754530855819,ARM,6571.97445545099,0.020459220932531948
Ch’arents’avan,AM,40.40289,44.64447,18500,9.825580063659602,ARM,6571.97445545099,0.016882044796269924
Ashtarak,AM,40.2991,44.36204,18779,9.840547752762253,ARM,6571.97445545099,0.016907761873153983
Abovyan,AM,40.27368,44.63348,35673,10.482177411118249,ARM,6571.97445545099,0.018010192525064708
Saurimo,AO,-9.66078,20.39155,40498,10.60903256143177,AGO,2929.69445467272,0.008125855482264672
Lucapa,AO,-8.41915,20.74466,20115,9.909270797291855,AGO,2929.69445467272,0.007589881732114533
Luau,AO,-10.70727,22.22466,18465,9.823686482332572,AGO,2929.69445467272,0.007524329499063993
Uíge,AO,-7.60874,15.06131,60008,11.002249829955362,AGO,2929.69445467272,0.008427035319224506
Soio,AO,-6.1349,12.36894,67491,11.119764351318228,AGO,2929.69445467272,0.008517044093552677
N'zeto,AO,-7.23116,12.8666,18352,9.817548327858471,AGO,2929.69445467272,0.007519628056600173
N’dalatando,AO,-9.29782,14.91162,383100,12.856053940969854,AGO,2929.69445467272,0.009846933336438143
Mbanza Kongo,AO,-6.26667,14.23833,24220,10.094975304446326,AGO,2929.69445467272,0.007732119771144435
Malanje,AO,-9.54015,16.34096,87046,11.374203481650147,AGO,2929.69445467272,0.008711928555461735
Luanda,AO,-8.83682,13.23432,2776168,14.83658247771832,AGO,2929.69445467272,0.01136389433876607
Caxito,AO,-8.57848,13.66425,28224,10.247963389017864,AGO,2929.69445467272,0.007849299076471123
Cabinda,AO,-5.56717,12.19787,66020,11.097728152217645,AGO,2929.69445467272,0.00850016574312507
Sumbe,AO,-11.20605,13.84371,33277,10.412651796975453,AGO,2929.69445467272,0.007975440097805401
Moçâmedes,AO,-15.19611,12.15222,80149,11.291655158037699,AGO,2929.69445467272,0.008648701701920298
Menongue,AO,-14.6585,17.69099,32203,10.379845947419872,AGO,2929.69445467272,0.007950312868633659
Luena,AO,-11.78333,19.91667,21115,9.957786325943507,AGO,2929.69445467272,0.007627041593033633
Lubango,AO,-14.91717,13.4925,102541,11.538027749731057,AGO,2929.69445467272,0.008837407699691414
Longonjo,AO,-12.90795,15.24845,24346,10.100163917635166,AGO,2929.69445467272,0.007736093924365451
Lobito,AO,-12.3644,13.53601,207932,12.244971191408535,AGO,2929.69445467272,0.009378882165712915
Cuito,AO,-12.38333,16.93333,113624,11.64065883147978,AGO,2929.69445467272,0.008916016690044637
Huambo,AO,-12.77611,15.73917,226145,12.32893608737393,AGO,2929.69445467272,0.009443194025088161
Catumbela,AO,-12.43002,13.54677,16977,9.739673667297913,AGO,2929.69445467272,0.007459980936678419
Catabola,AO,-12.15,17.28333,18855,9.844586444615967,AGO,2929.69445467272,0.007540337563146767
Camacupa,AO,-12.01667,17.48333,19150,9.860110212566559,AGO,2929.69445467272,0.0075522277985830616
Caála,AO,-12.8525,15.56056,21205,9.962039439485743,AGO,2929.69445467272,0.007630299212028931
Benguela,AO,-12.57626,13.40547,151226,11.92653729821416,AGO,2929.69445467272,0.009134981717508128
Zárate,AR,-34.09814,-59.02858,99061,11.503501195722388,ARG,13935.6811110049,0.04191111593334486
Wanda,AR,-25.96879,-54.56285,15529,9.650528916142733,ARG,13935.6811110049,0.035160115980424844
Villa Ortúzar,AR,-34.57973,-58.46829,22500,10.021315031649332,ARG,13935.6811110049,0.03651101425122698
Villa Ocampo,AR,-28.48752,-59.35515,19101,9.857548320594683,ARG,13935.6811110049,0.03591435715559541
Villa Lugano,AR,-34.67907,-58.47263,114000,11.643962499267984,ARG,13935.6811110049,0.04242286360710851
Villaguay,AR,-31.8653,-59.02689,32027,10.374365799192525,ARG,13935.6811110049,0.0377972966966412
Villa Gesell,AR,-37.26394,-56.97304,23257,10.05440443785299,ARG,13935.6811110049,0.03663157006427655
Villa de Mayo,AR,-34.5108,-58.68059,43405,10.67835295938093,ARG,13935.6811110049,0.03890482395257282
Tortuguitas,AR,-34.47513,-58.75367,41390,10.630818744876143,ARG,13935.6811110049,0.0387316408545738
Tigre,AR,-34.42603,-58.57962,31106,10.345188153226388,ARG,13935.6811110049,0.037690992739094466
Tandil,AR,-37.32167,-59.13316,115877,11.660293192500655,ARG,13935.6811110049,0.04248236180384889
San Vicente,AR,-26.61667,-54.13333,38247,10.551846550305939,ARG,13935.6811110049,0.03844391864323754
Santo Tomé,AR,-28.54939,-56.04077,22634,10.02725265987006,ARG,13935.6811110049,0.036532647023762396
Santos Lugares,AR,-34.60379,-58.5461,37267,10.525890328570316,ARG,13935.6811110049,0.038349351415413215
Santa Elena,AR,-30.94432,-59.78832,18410,9.820703591057207,ARG,13935.6811110049,0.035780119439190246
San Pedro,AR,-33.67918,-59.66633,47452,10.767495026486278,ARG,13935.6811110049,0.03922959842300791
San Pedro,AR,-26.62207,-54.10842,23736,10.074790291180951,ARG,13935.6811110049,0.03670584257033289
San Luis del Palmar,AR,-27.5079,-58.55454,15347,9.638740451366843,ARG,13935.6811110049,0.03511716664652272
San Lorenzo,AR,-28.13306,-58.76733,47626,10.771155106297904,ARG,13935.6811110049,0.039242933322244274
San Javier,AR,-30.57781,-59.9317,15606,9.655474810542554,ARG,13935.6811110049,0.035178135533781525
San Isidro,AR,-34.4721,-58.52708,45190,10.718653230950043,ARG,13935.6811110049,0.039051651368430036
Saladas,AR,-28.25384,-58.62591,18349,9.817384853482716,ARG,13935.6811110049,0.03576802816429312
Retiro,AR,-34.58333,-58.38333,38635,10.561939763299186,ARG,13935.6811110049,0.03848069160589497
Resistencia,AR,-27.46056,-58.98389,290793,12.580370391691368,ARG,13935.6811110049,0.045834511858586
Reconquista,AR,-29.15,-59.65,90184,11.4096183951043,ARG,13935.6811110049,0.04156906937952567
Quilmes,AR,-34.72904,-58.26374,262379,12.477549113635021,ARG,13935.6811110049,0.04545989943131589
Puerto Rico,AR,-26.79598,-55.02402,17491,9.76949891253281,ARG,13935.6811110049,0.03559356360879978
Puerto Iguazú,AR,-25.59912,-54.57355,32038,10.374709189708955,ARG,13935.6811110049,0.0377985477835494
Puerto Esperanza,AR,-26.02267,-54.61356,15579,9.65374331942474,ARG,13935.6811110049,0.0351718271304753
Puerto Eldorado,AR,-26.40843,-54.69463,54189,10.90025166856016,ARG,13935.6811110049,0.039713275429009265
Posadas,AR,-27.36708,-55.89608,305874,12.630931800744973,ARG,13935.6811110049,0.04601872404238505
Pontevedra,AR,-34.74785,-58.70072,33515,10.419778215733176,ARG,13935.6811110049,0.03796274937248882
Pirané,AR,-25.73239,-59.10879,19124,9.858751658694736,ARG,13935.6811110049,0.035918741320186715
Pilar,AR,-34.45866,-58.9142,81120,11.303697146165202,ARG,13935.6811110049,0.0411831627178441
Paso de los Libres,AR,-29.71251,-57.08771,43805,10.687526073284142,ARG,13935.6811110049,0.0389382446854198
Oberá,AR,-27.48706,-55.11994,56528,10.9425090597906,ARG,13935.6811110049,0.03986723328868753
Necochea,AR,-38.5545,-58.73961,73557,11.205829489659132,ARG,13935.6811110049,0.04082659799653335
Muñiz,AR,-34.55622,-58.70739,26827,10.197201397219628,ARG,13935.6811110049,0.03715182731614434
Morón,AR,-34.6509,-58.61956,122642,11.71703297508604,ARG,13935.6811110049,0.042689083876156164
Monte Caseros,AR,-30.25359,-57.63626,24671,10.113424276363055,ARG,13935.6811110049,0.03684659914560376
Montecarlo,AR,-26.5662,-54.757,22229,10.009198006958242,ARG,13935.6811110049,0.03646686786327473
Merlo,AR,-34.66627,-58.72927,268961,12.502325384664765,ARG,13935.6811110049,0.04555016770267571
Mercedes,AR,-34.65145,-59.43068,63284,11.055403613226549,ARG,13935.6811110049,0.04027854603919662
Mercedes,AR,-29.18416,-58.07519,30649,10.330387941364357,ARG,13935.6811110049,0.0376370705996837
Mar del Plata,AR,-38.00042,-57.5562,593337,13.293519498737767,ARG,13935.6811110049,0.048432753419537664
Luján,AR,-34.57028,-59.105,97363,11.486211811451804,ARG,13935.6811110049,0.041848124903374785
Los Polvorines,AR,-34.50316,-58.70596,53354,10.884722973050666,ARG,13935.6811110049,0.03965669917915987
La Plata,AR,-34.92145,-57.95453,195443,12.183029172361561,ARG,13935.6811110049,0.044386864431503484
La Paz,AR,-30.74179,-59.64517,24716,10.1152465449837,ARG,13935.6811110049,0.036853238281821694
Jardín América,AR,-27.04346,-55.22698,24905,10.122864017281094,ARG,13935.6811110049,0.03688099129015744
Hurlingham,AR,-34.5904,-58.62904,60000,11.002116507732017,ARG,13935.6811110049,0.04008440322840053
Gualeguaychú,AR,-33.00937,-58.51722,78676,11.273106142645405,ARG,13935.6811110049,0.04107170942434487
Gualeguay,AR,-33.14156,-59.30966,33120,10.407922801280105,ARG,13935.6811110049,0.037919556118441486
Goya,AR,-29.13995,-59.26343,70245,11.159758646073097,ARG,13935.6811110049,0.04065874644996252
Gobernador Virasora,AR,-28.05,-56.03333,28756,10.266636494850344,ARG,13935.6811110049,0.037404802682263844
General Pacheco,AR,-34.45256,-58.64312,43287,10.675630739322571,ARG,13935.6811110049,0.03889490599120429
General José de San Martín,AR,-26.53743,-59.34158,31758,10.365931428719277,ARG,13935.6811110049,0.037766567454064114
Garupá,AR,-27.48171,-55.82921,28814,10.268651363870767,ARG,13935.6811110049,0.03741214352638327
Formosa,AR,-26.18489,-58.17313,222226,12.311454660956878,ARG,13935.6811110049,0.044854761591658195
Fontana,AR,-27.41813,-59.02392,26745,10.194140208432742,ARG,13935.6811110049,0.037140674377925086
Federal,AR,-30.95465,-58.78326,16333,9.70100410391822,ARG,13935.6811110049,0.03534401403116808
Esquina,AR,-30.01476,-59.5289,26399,10.181119289134408,ARG,13935.6811110049,0.037093234798532146
El Soberbio,AR,-27.29847,-54.19877,19571,9.881855252409014,ARG,13935.6811110049,0.03600291546666276
Don Torcuato,AR,-34.49459,-58.62729,71356,11.175450726011427,ARG,13935.6811110049,0.04071591796412512
Dolores,AR,-36.31321,-57.67918,25190,10.134242066851673,ARG,13935.6811110049,0.03692244534371334
Curuzú Cuatiá,AR,-29.79171,-58.0546,36390,10.50207677030558,ARG,13935.6811110049,0.03826259062978475
Corrientes,AR,-27.46784,-58.8344,346334,12.755161793721214,ARG,13935.6811110049,0.04647133560380792
Concordia,AR,-31.39296,-58.02089,145210,11.88594313607913,ARG,13935.6811110049,0.04330448028627987
Concepción del Uruguay,AR,-32.48463,-58.23217,67895,11.125732401649513,ARG,13935.6811110049,0.040534777420833945
Colegiales,AR,-34.57365,-58.44924,57000,10.950824090522445,ARG,13935.6811110049,0.03989752773653105
Chajarí,AR,-30.75048,-57.97962,30655,10.330583680770587,ARG,13935.6811110049,0.03763778374403928
Campana,AR,-34.16327,-58.95919,86860,11.372064418801726,ARG,13935.6811110049,0.04143224763910106
Buenos Aires,AR,-34.61315,-58.37723,2891082,14.877141730375365,ARG,13935.6811110049,0.054202420742166885
Boedo,AR,-34.63333,-58.41667,48231,10.78377798016924,ARG,13935.6811110049,0.03928892268854524
Berazategui,AR,-34.76531,-58.21278,180523,12.103619011905066,ARG,13935.6811110049,0.044097546563442995
Bella Vista,AR,-34.5651,-58.69034,79737,11.286501539105876,ARG,13935.6811110049,0.04112051334973036
Belgrano,AR,-34.5627,-58.45829,138942,11.84181905606789,ARG,13935.6811110049,0.043143721452830894
Barranqueras,AR,-27.48132,-58.93925,50823,10.836123962946369,ARG,13935.6811110049,0.03947963667339994
Barracas,AR,-34.64966,-58.38341,77474,11.25771058265595,ARG,13935.6811110049,0.041015618231881074
Balcarce,AR,-37.84616,-58.25522,38823,10.566793891085052,ARG,13935.6811110049,0.03849837682267612
Azul,AR,-36.77698,-59.85854,53941,10.895664674241416,ARG,13935.6811110049,0.03969656346911049
Avellaneda,AR,-29.11761,-59.65834,23341,10.058009591972299,ARG,13935.6811110049,0.03664470485078034
Aristóbulo del Valle,AR,-27.09625,-54.89626,20683,9.937115733516112,ARG,13935.6811110049,0.03620424794716645
Zapala,AR,-38.89916,-70.05442,31534,10.35885331909775,ARG,13935.6811110049,0.03774077952499023
Yerba Buena,AR,-26.81667,-65.31667,50783,10.835336623326135,ARG,13935.6811110049,0.03947676813089787
Villa Regina,AR,-39.1,-67.06667,31209,10.348493835264826,ARG,13935.6811110049,0.03770303644829173
Villa Paula de Sarmiento,AR,-31.4933,-68.53838,19092,9.857077054713464,ARG,13935.6811110049,0.03591264017581272
Villa Nueva,AR,-32.43293,-63.24763,16841,9.731631045589937,ARG,13935.6811110049,0.03545559825941716
Villa María,AR,-32.40751,-63.24016,92453,11.434466502509908,ARG,13935.6811110049,0.0416595993749142
Villa Dolores,AR,-31.94585,-65.18958,28009,10.240316868254155,ARG,13935.6811110049,0.037308911448557934
Villa Constitución,AR,-33.22778,-60.3297,44271,10.698107702026707,ARG,13935.6811110049,0.03897679711058565
Villa Carlos Paz,AR,-31.42414,-64.49778,69451,11.148391145464029,ARG,13935.6811110049,0.04061733082981409
Villa Ángela,AR,-27.57383,-60.71526,43511,10.680792041102796,ARG,13935.6811110049,0.038913710345947906
Villa Allende,AR,-31.29458,-64.29538,21683,9.98432994038023,ARG,13935.6811110049,0.03637626514992197
Viedma,AR,-40.81345,-62.99668,48940,10.798370769971399,ARG,13935.6811110049,0.03934208911977198
Victoria,AR,-32.61841,-60.15478,25139,10.132215482144238,ARG,13935.6811110049,0.03691506181541383
Vera,AR,-29.4593,-60.21261,19797,9.893336201479753,ARG,13935.6811110049,0.03604474441763531
Venado Tuerto,AR,-33.74556,-61.96885,72340,11.189146329021272,ARG,13935.6811110049,0.040765815642732406
Veinticinco de Mayo,AR,-35.4323,-60.17271,24668,10.113302673639005,ARG,13935.6811110049,0.036846156106064856
Ushuaia,AR,-54.81084,-68.31591,56825,10.947749246454157,ARG,13935.6811110049,0.03988632504753833
Unquillo,AR,-31.23073,-64.31615,15369,9.640172836532642,ARG,13935.6811110049,0.035122385306452744
Tres Isletas,AR,-26.34067,-60.43207,24747,10.116499956650879,ARG,13935.6811110049,0.03685780488122491
Tres Arroyos,AR,-38.37394,-60.27978,47136,10.760813534244377,ARG,13935.6811110049,0.0392052555041701
Trelew,AR,-43.24895,-65.30505,97915,11.49186524723858,ARG,13935.6811110049,0.041868722267485926
Termas de Río Hondo,AR,-27.49362,-64.85972,27838,10.234193194263003,ARG,13935.6811110049,0.037286600848835776
Tartagal,AR,-22.51637,-63.80131,60819,11.015673961231355,ARG,13935.6811110049,0.04013379758197203
Tafí Viejo,AR,-26.73201,-65.25921,48459,10.788493994370517,ARG,13935.6811110049,0.03930610471118078
Sunchales,AR,-30.94404,-61.56148,18757,9.839375607068884,ARG,13935.6811110049,0.03584814786066471
Santo Tomé,AR,-31.66274,-60.7653,59072,10.98652924621328,ARG,13935.6811110049,0.04002761360292215
Santiago del Estero,AR,-27.79511,-64.26149,252192,12.437949946378353,ARG,13935.6811110049,0.04531562637379012
Santa Rosa,AR,-36.61667,-64.28333,102860,11.541133841233817,ARG,13935.6811110049,0.04204822429210215
Santa Lucía,AR,-31.53987,-68.49503,43565,10.682032308608301,ARG,13935.6811110049,0.038918229056758395
Santa Fe,AR,-31.64881,-60.70868,391164,12.876884744837614,ARG,13935.6811110049,0.04691481317026267
San Salvador de Jujuy,AR,-24.19457,-65.29712,257970,12.460602454485278,ARG,13935.6811110049,0.04539815706399455
San Ramón de la Nueva Orán,AR,-23.13705,-64.32426,74059,11.212630854467603,ARG,13935.6811110049,0.04085137765136563
San Rafael,AR,-34.61772,-68.33007,118009,11.678524645619794,ARG,13935.6811110049,0.0425487851068337
San Pedro de Jujuy,AR,-24.23127,-64.86614,58430,10.975601849898009,ARG,13935.6811110049,0.039987801430434254
San Nicolás de los Arroyos,AR,-33.33425,-60.2108,134217,11.807220622692256,ARG,13935.6811110049,0.04301766774729839
San Miguel de Tucumán,AR,-26.82414,-65.2226,548866,13.215611432490206,ARG,13935.6811110049,0.04814890818484873
San Martín de los Andes,AR,-40.15789,-71.35337,23519,10.065606402012563,ARG,13935.6811110049,0.03667238257957821
San Martín,AR,-33.08103,-68.46814,82549,11.321159449348274,ARG,13935.6811110049,0.04124678374945151
San Luis,AR,-33.29501,-66.33563,169947,12.043247786887909,ARG,13935.6811110049,0.04387759392748613
San Justo,AR,-30.78913,-60.59189,21809,9.990123859195675,ARG,13935.6811110049,0.036397374340858796
San Juan,AR,-31.5375,-68.53639,109123,11.600240129296937,ARG,13935.6811110049,0.042263568338167384
San José de Jáchal,AR,-30.24057,-68.74693,21018,9.953182069559979,ARG,13935.6811110049,0.036262783001938206
San Jorge,AR,-31.89618,-61.85984,16873,9.733529254725571,ARG,13935.6811110049,0.035462514072420154
San Francisco,AR,-31.42797,-62.08266,59062,10.986359949808731,ARG,13935.6811110049,0.04002699679929712
Catamarca,AR,-28.46957,-65.78524,159139,11.977539596931527,ARG,13935.6811110049,0.043638196936937185
San Antonio Oeste,AR,-40.73193,-64.94769,16966,9.73902556004294,ARG,13935.6811110049,0.0354825389574914
Salta,AR,-24.7859,-65.41166,520683,13.162898610812546,ARG,13935.6811110049,0.04795685768275223
Rufino,AR,-34.26827,-62.71262,18361,9.818038590703646,ARG,13935.6811110049,0.03577040994841173
Rosario,AR,-32.94682,-60.63932,948312,13.762439895519814,ARG,13935.6811110049,0.050141187815176305
Río Tercero,AR,-32.17301,-64.11405,53389,10.885378741494232,ARG,13935.6811110049,0.03965908836370431
Río Segundo,AR,-31.6526,-63.9099,18155,9.806756363576357,ARG,13935.6811110049,0.03572930500817892
Río Grande,AR,-53.78769,-67.70946,52681,10.872029120208696,ARG,13935.6811110049,0.039610451212645253
Río Gallegos,AR,-51.62261,-69.21813,95796,11.469986648228536,ARG,13935.6811110049,0.04178901118787913
Río Cuarto,AR,-33.13067,-64.34992,157010,11.964071145570367,ARG,13935.6811110049,0.04358912684802807
Río Ceballos,AR,-31.16486,-64.32241,16632,9.719143952790535,ARG,13935.6811110049,0.03541010358913532
Rawson,AR,-43.30016,-65.10228,26335,10.178692103476797,ARG,13935.6811110049,0.03708439174651197
Rafaela,AR,-31.25033,-61.4867,88713,11.3931729912432,ARG,13935.6811110049,0.04150915325346402
Quitilipi,AR,-26.86913,-60.21683,32083,10.376112742486816,ARG,13935.6811110049,0.03780366139741275
Punta Alta,AR,-38.87588,-62.07359,57209,10.954483987262574,ARG,13935.6811110049,0.039910861968776495
Puerto Madryn,AR,-42.7692,-65.03851,64555,11.075288343155712,ARG,13935.6811110049,0.04035099278451224
Presidencia Roque Sáenz Peña,AR,-26.78522,-60.43876,81879,11.313010039775225,ARG,13935.6811110049,0.04121709271507918
Pocito,AR,-31.68333,-68.58333,40969,10.620595370540917,ARG,13935.6811110049,0.038694393670459716
Plottier,AR,-38.96667,-68.23333,25186,10.134083267375377,ARG,13935.6811110049,0.03692186678392116
Pergamino,AR,-33.88995,-60.57357,91399,11.42300075744224,ARG,13935.6811110049,0.04161782581722796
Pérez,AR,-32.99835,-60.76791,24436,10.10385365616035,ARG,13935.6811110049,0.036811730163887245
Paraná,AR,-31.73271,-60.52897,247139,12.417710256658182,ARG,13935.6811110049,0.04524188639081586
Palpalá,AR,-24.25798,-65.21358,48199,10.783114300038692,ARG,13935.6811110049,0.039286504679069606
Olavarría,AR,-36.89272,-60.32254,89721,11.404471279959477,ARG,13935.6811110049,0.041550316711456474
Nueve de Julio,AR,-35.44437,-60.88313,34718,10.455042366516187,ARG,13935.6811110049,0.038091228509980216
Neuquén,AR,-38.95161,-68.0591,231198,12.35103409051149,ARG,13935.6811110049,0.044998962738110534
Morteros,AR,-30.71164,-61.99862,15129,9.624434806782402,ARG,13935.6811110049,0.035065046381702596
Monteros,AR,-27.16741,-65.49832,23771,10.076263696486551,ARG,13935.6811110049,0.03671121068040035
Mendoza,AR,-32.89084,-68.82717,114893,11.651765243152221,ARG,13935.6811110049,0.042451291622020354
Marcos Juárez,AR,-32.6978,-62.10672,24226,10.095222992690658,ARG,13935.6811110049,0.03678028576003962
Machagai,AR,-26.92614,-60.04955,28070,10.242492293944023,ARG,13935.6811110049,0.037316837254513985
Lincoln,AR,-34.86649,-61.5302,41808,10.640866906341545,ARG,13935.6811110049,0.03876824967939402
Libertador General San Martín,AR,-23.81305,-64.79353,49267,10.805030062061375,ARG,13935.6811110049,0.03936635115600499
Las Breñas,AR,-27.08966,-61.08161,26955,10.201961186066107,ARG,13935.6811110049,0.03716916882450505
La Rioja,AR,-29.41105,-66.85067,178872,12.09443133580393,ARG,13935.6811110049,0.04406407277562126
La Falda,AR,-31.08841,-64.48987,15112,9.62331057957012,ARG,13935.6811110049,0.03506095044462851
La Calera,AR,-31.34377,-64.33529,24796,10.118477957093951,ARG,13935.6811110049,0.03686501140074235
Laboulaye,AR,-34.12662,-63.39119,19908,9.898927169779796,ARG,13935.6811110049,0.03606511419172547
Junín,AR,-34.58382,-60.94332,87509,11.379508351529877,ARG,13935.6811110049,0.0414593683845386
Joaquín V. González,AR,-25.11364,-64.12628,19185,9.861936125377893,ARG,13935.6811110049,0.03593034340115954
Jesús María,AR,-30.98153,-64.09424,26825,10.197126845462035,ARG,13935.6811110049,0.037151555699068604
Granadero Baigorria,AR,-32.85683,-60.71754,32427,10.386777526107597,ARG,13935.6811110049,0.03784251678371034
Gobernador Gálvez,AR,-33.03016,-60.64045,74650,11.2205791987249,ARG,13935.6811110049,0.04088033613730638
General Villegas,AR,-35.03285,-63.01252,16270,9.69713966113932,ARG,13935.6811110049,0.035329934569048795
General Roca,AR,-39.03333,-67.58333,73212,11.201128279809582,ARG,13935.6811110049,0.04080946991112012
General Pinedo,AR,-27.31667,-61.28333,15741,9.664087578702395,ARG,13935.6811110049,0.035209514739008914
General Pico,AR,-35.65662,-63.75682,57029,10.951332724150584,ARG,13935.6811110049,0.03989938085955801
General Mosconi,AR,-22.59588,-63.81255,19811,9.89404309370813,ARG,13935.6811110049,0.03604731986328718
Gálvez,AR,-32.02927,-61.22103,18374,9.818746324081037,ARG,13935.6811110049,0.03577298845865179
Firmat,AR,-33.45937,-61.4832,18294,9.814383077453307,ARG,13935.6811110049,0.03575709168669087
Famaillá,AR,-27.05413,-65.40329,30951,10.34019289638035,ARG,13935.6811110049,0.03767279334177802
Esquel,AR,-42.91147,-71.31947,28486,10.257203121842208,ARG,13935.6811110049,0.03737043373814329
Esperanza,AR,-31.4488,-60.93173,35885,10.488102526272613,ARG,13935.6811110049,0.03821167776840614
Embarcación,AR,-23.21003,-64.09965,23961,10.084224521199845,ARG,13935.6811110049,0.03674021463683128
Embalse,AR,-32.18,-64.41809,15900,9.674137279312397,ARG,13935.6811110049,0.03524612917144952
El Bolsón,AR,-41.96051,-71.53336,15537,9.651043915510366,ARG,13935.6811110049,0.035161992295977405
Diamante,AR,-32.06641,-60.63837,19545,9.880525940898782,ARG,13935.6811110049,0.03599807233865599
Deán Funes,AR,-30.42036,-64.34984,20164,9.911703707307469,ARG,13935.6811110049,0.036111663406302695
Cutral-Có,AR,-38.93424,-69.23052,47380,10.765976583441928,ARG,13935.6811110049,0.03922406622534155
Cruz del Eje,AR,-30.72644,-64.80387,28166,10.245906358926657,ARG,13935.6811110049,0.03732927583915501
Crespo,AR,-32.02873,-60.30658,18296,9.814492390964565,ARG,13935.6811110049,0.035757489952502775
Cosquín,AR,-31.24508,-64.46563,19070,9.855924135604518,ARG,13935.6811110049,0.03590843970452883
Coronel Suárez,AR,-37.45467,-61.93343,27000,10.203629181337648,ARG,13935.6811110049,0.03717524589113132
Coronda,AR,-31.97263,-60.91983,16975,9.739555860853764,ARG,13935.6811110049,0.035484471021337345
Córdoba,AR,-31.4135,-64.18105,1317298,14.09109398608911,ARG,13935.6811110049,0.05133858497778449
Comodoro Rivadavia,AR,-45.86413,-67.49656,140850,11.855457873030824,ARG,13935.6811110049,0.0431934122408094
Cipolletti,AR,-38.93392,-67.99032,75078,11.22629617148548,ARG,13935.6811110049,0.04090116498793888
Cinco Saltos,AR,-38.82225,-68.06293,19819,9.894446807883979,ARG,13935.6811110049,0.0360487907295339
Chivilcoy,AR,-34.89566,-60.01667,54514,10.906231172140481,ARG,13935.6811110049,0.03973506076753489
Chimbas,AR,-31.48333,-68.53333,73829,11.20952043205321,ARG,13935.6811110049,0.040840045338516415
Chilecito,AR,-29.16195,-67.4974,42248,10.65133596386616,ARG,13935.6811110049,0.038806391969829046
Charata,AR,-27.21438,-61.18795,27813,10.233294770038556,ARG,13935.6811110049,0.03728332758783571
Chacabuco,AR,-34.64167,-60.47389,34587,10.45126208008032,ARG,13935.6811110049,0.038077455657665155
Centenario,AR,-38.82955,-68.1318,28956,10.273567249973496,ARG,13935.6811110049,0.037430053749441555
Caucete,AR,-31.65179,-68.28105,33609,10.422578920719152,ARG,13935.6811110049,0.03797295328079162
Catriel,AR,-37.87907,-67.7956,15169,9.627075072342578,ARG,13935.6811110049,0.03507466575532674
Castelli,AR,-25.94679,-60.61947,36588,10.507502927768234,ARG,13935.6811110049,0.0382823599426766
Casilda,AR,-33.04417,-61.16806,32002,10.373584927387608,ARG,13935.6811110049,0.0377944517185612
Carcarañá,AR,-32.85679,-61.15331,15619,9.656307423393677,ARG,13935.6811110049,0.0351811690218594
Capitán Bermúdez,AR,-32.82262,-60.71852,27060,10.205848855956967,ARG,13935.6811110049,0.03718333291078923
Cañada de Gómez,AR,-32.81636,-61.39493,36000,10.491301994830229,ARG,13935.6811110049,0.03822333450624289
Caleta Olivia,AR,-46.43929,-67.52814,36077,10.493438540267624,ARG,13935.6811110049,0.03823111865838927
Bell Ville,AR,-32.62591,-62.68873,35105,10.46612733501629,ARG,13935.6811110049,0.03813161477082558
Bella Vista,AR,-27.03424,-65.30196,15126,9.6242365055622,ARG,13935.6811110049,0.03506432390379885
Bahía Blanca,AR,-38.71959,-62.27243,299101,12.60853993132253,ARG,13935.6811110049,0.04593714294638991
Arroyo Seco,AR,-33.15489,-60.50863,20620,9.934065253000266,ARG,13935.6811110049,0.03619313402277275
Arroyito,AR,-31.42022,-63.05002,19577,9.882161765821376,ARG,13935.6811110049,0.036004032197903275
Añatuya,AR,-28.46064,-62.83472,20261,9.916502489613622,ARG,13935.6811110049,0.0361291469809249
Alta Gracia,AR,-31.65292,-64.42826,40384,10.606213707876396,ARG,13935.6811110049,0.03864199644625887
Allen,AR,-38.97736,-67.82714,26083,10.169077378513093,ARG,13935.6811110049,0.037049362076347646
Alderetes,AR,-26.81667,-65.13333,38466,10.557556009861747,ARG,13935.6811110049,0.0384647201207433
Albardón,AR,-31.43722,-68.52556,20413,9.923976218963444,ARG,13935.6811110049,0.03615637628545623
Aguilares,AR,-27.4338,-65.61427,32494,10.388841510328449,ARG,13935.6811110049,0.03785003657099014
Balvanera,AR,-34.61032,-58.39766,152198,11.932944154085904,ARG,13935.6811110049,0.0434757207704726
Villa Santa Rita,AR,-34.61082,-58.481,34000,10.434145214930487,ARG,13935.6811110049,0.03801509317275691
Villa Mercedes,AR,-33.67571,-65.45783,96781,11.480216305560523,ARG,13935.6811110049,0.04182628126305926
San Miguel,AR,-34.54335,-58.71229,72992,11.19811882512179,ARG,13935.6811110049,0.040798505457588084
San Carlos de Bariloche,AR,-41.14557,-71.30822,95394,11.465781445161412,ARG,13935.6811110049,0.04177369022165582
Adrogué,AR,-34.80041,-58.38384,28265,10.249414947928097,ARG,13935.6811110049,0.03734205880652293
Ingeniero Pablo Nogués,AR,-34.47775,-58.70652,38470,10.557659989689753,ARG,13935.6811110049,0.03846509895415689
José C. Paz,AR,-34.51541,-58.76813,230208,12.346742870943554,ARG,13935.6811110049,0.044983328384903876
Santa María,AR,-34.56635,-58.75762,113302,11.637820925041545,ARG,13935.6811110049,0.0424004877908211
Pago Pago,AS,-14.27806,-170.7025,11500,9.350189267092581,ASM,18017.4589383973,0.044043814589789114
Wilten,AT,47.25829,11.38808,18142,9.806040090370162,AUT,52176.6649141178,0.1337645285304719
Wiener Neustadt,AT,47.80485,16.23196,44820,10.710432058574115,AUT,52176.6649141178,0.1461013703258006
Vienna,AT,48.20849,16.37208,1691468,14.341107940106198,AUT,52176.6649141178,0.19562754430269708
Wetzelsdorf,AT,47.05293,15.39923,15687,9.660651367876183,AUT,52176.6649141178,0.13178127599032033
Wels,AT,48.16667,14.03333,16857,9.732580600557428,AUT,52176.6649141178,0.13276246511544068
Weinzierl bei Krems,AT,48.4,15.6,24092,10.089676620856572,AUT,52176.6649141178,0.1376336241516281
Villach,AT,46.61028,13.85583,58882,10.983307703191752,AUT,52176.6649141178,0.14982367633447907
Telfs,AT,47.30707,11.06817,15229,9.631022445889208,AUT,52176.6649141178,0.13137710685130713
Straßgang,AT,47.03333,15.4,16268,9.69701673550917,AUT,52176.6649141178,0.13227733721497723
Stockerau,AT,48.38333,16.21667,16292,9.698490846702954,AUT,52176.6649141178,0.13229744561623002
Steyr,AT,48.04274,14.42127,38331,10.554040335463652,AUT,52176.6649141178,0.14396802547761026
Simmering,AT,48.18333,16.43333,101420,11.527035449288569,AUT,52176.6649141178,0.15724068513061903
Sankt Pölten,AT,48.2,15.63333,21911,9.994789710942914,AUT,52176.6649141178,0.13633926856554618
Sankt Peter,AT,47.05,15.46667,15187,9.628260921351693,AUT,52176.6649141178,0.13133943680056476
Sankt Peter,AT,46.62978,14.34016,20320,9.919410113079943,AUT,52176.6649141178,0.13531101289087696
Sankt Martin,AT,46.61667,14.28333,20000,9.90353755128617,AUT,52176.6649141178,0.13509449473213525
Salzburg,AT,47.79941,13.04399,157245,11.965566737037248,AUT,52176.6649141178,0.1632227054375897
Saalfelden am Steinernen Meer,AT,47.42681,12.848,16790,9.72859830755947,AUT,52176.6649141178,0.13270814252034285
Pradl,AT,47.26539,11.4152,32588,10.39173008710186,AUT,52176.6649141178,0.1417539458238772
Perchtoldsdorf,AT,48.11935,16.26607,15047,9.619000370980867,AUT,52176.6649141178,0.13121311331597052
Ottakring,AT,48.21667,16.3,104627,11.558166481215816,AUT,52176.6649141178,0.15766534460274426
Mödling,AT,48.08605,16.28921,20555,9.93090814811212,AUT,52176.6649141178,0.13546785798032512
Meidling,AT,48.16667,16.33333,97624,11.488888887141988,AUT,52176.6649141178,0.15672032657063245
Lustenau,AT,47.42642,9.65851,22821,10.035480261994625,AUT,52176.6649141178,0.1368943297652676
Linz,AT,48.30639,14.28611,204846,12.230018638005685,AUT,52176.6649141178,0.1668301028708073
Klosterneuburg,AT,48.30521,16.32522,15614,9.65598726971718,AUT,52176.6649141178,0.13171765286768272
Klagenfurt am Wörthersee,AT,46.62472,14.30528,100316,11.516090451113385,AUT,52176.6649141178,0.15709138403586745
Innsbruck,AT,47.26266,11.39454,132493,11.794292640364239,AUT,52176.6649141178,0.1608863496222136
Innere Stadt,AT,48.20906,16.37135,16450,9.708141544619421,AUT,52176.6649141178,0.13242909111684895
Hötting,AT,47.26815,11.36868,35043,10.464359693786255,AUT,52176.6649141178,0.14274468877474814
Hohenems,AT,47.36121,9.68694,16317,9.700024071988745,AUT,52176.6649141178,0.13231836039483533
Hietzing,AT,48.18623,16.2965,54265,10.901653158794721,AUT,52176.6649141178,0.14870982389934922
Hernals,AT,48.23333,16.26667,57546,10.960357284207447,AUT,52176.6649141178,0.14951060888352838
Graz,AT,47.06667,15.45,295424,12.596170276507216,AUT,52176.6649141178,0.1718247899048645
Floridsdorf,AT,48.25,16.4,162779,12.000154874881032,AUT,52176.6649141178,0.16369452340985807
Feldkirch,AT,47.23306,9.6,33420,10.416939723904,AUT,52176.6649141178,0.1420978313424133
Eggenberg,AT,47.07,15.39871,20511,9.928765359720396,AUT,52176.6649141178,0.13543862813052662
Dornbirn,AT,47.41427,9.74195,49278,10.80525330579372,AUT,52176.6649141178,0.14739483020482533
Bregenz,AT,47.50311,9.7471,29806,10.302498544237826,AUT,52176.6649141178,0.1405367352933007
Baden,AT,48.00543,16.23264,26286,10.176829799383084,AUT,52176.6649141178,0.13882248364313474
Amstetten,AT,48.1229,14.87206,15559,9.652458797732383,AUT,52176.6649141178,0.13166952086055958
Favoriten,AT,48.16116,16.38233,201882,12.215443600656842,AUT,52176.6649141178,0.16663128428743268
Donaustadt,AT,48.2333,16.46002,187007,12.138906675670317,AUT,52176.6649141178,0.16558724147385612
Jakomini,AT,47.05441,15.44984,32912,10.401622995485601,AUT,52176.6649141178,0.14188889532577104
Lend,AT,47.08256,15.41589,31147,10.346505316696877,AUT,52176.6649141178,0.1411370331827529
Geidorf,AT,47.08393,15.444,24767,10.117307776389454,AUT,52176.6649141178,0.13801054169005808
Sankt Leonhard,AT,47.06924,15.45784,15853,9.671177113397102,AUT,52176.6649141178,0.13192485804526422
Andritz,AT,47.11387,15.42348,19020,9.85329891095284,AUT,52176.6649141178,0.1344091877196951
Gries,AT,47.06236,15.42421,29363,10.287524713230672,AUT,52176.6649141178,0.1403324767519825
Scarborough,AU,-31.89578,115.76431,17605,9.775995032020852,AUS,64997.0136536475,0.1661213141347256
Rockingham,AU,-32.27682,115.72978,15312,9.636457419815208,AUS,64997.0136536475,0.16375018245606812
Perth,AU,-31.95224,115.8614,2192229,14.600429848552889,AUS,64997.0136536475,0.24810186435539766
Mount Isa,AU,-20.72523,139.49727,22785,10.033901591258061,AUS,64997.0136536475,0.17050386306239157
Morphett Vale,AU,-35.13333,138.51667,24002,10.085934101518234,AUS,64997.0136536475,0.17138803996242438
Mandurah,AU,-32.5269,115.7217,107641,11.58656618512159,AUS,64997.0136536475,0.19688794794564168
Kwinana,AU,-32.23013,115.78128,30433,10.32331568348006,AUS,64997.0136536475,0.17542181250605945
Gosnells,AU,-32.081,116.0054,21149,9.959395184474424,AUS,64997.0136536475,0.16923779222604055
Geraldton,AU,-28.77897,114.61459,37648,10.536061672450339,AUS,64997.0136536475,0.17903695788500806
Gawler,AU,-34.60251,138.74902,20006,9.903837491300417,AUS,64997.0136536475,0.16829371267504548
Darwin,AU,-12.46113,130.84185,147255,11.899927847712558,AUS,64997.0136536475,0.20221283313825342
Byford,AU,-32.22099,116.009,18878,9.845805472195043,AUS,64997.0136536475,0.16730758745258992
Busselton,AU,-33.65249,115.3455,21898,9.99419625266159,AUS,64997.0136536475,0.1698291590548501
Bunbury,AU,-33.32711,115.64137,76452,11.244431451921493,AUS,64997.0136536475,0.19107412834935808
Australind,AU,-33.2792,115.71504,15988,9.67965626478542,AUS,64997.0136536475,0.16448425084215548
Alice Springs,AU,-23.69748,133.88362,25186,10.134083267375377,AUS,64997.0136536475,0.1722062280527907
Albany,AU,-35.02692,117.88369,33650,10.423798052313334,AUS,64997.0136536475,0.1771292871010525
Adelaide,AU,-34.92866,138.59863,1387290,14.142863482626163,AUS,64997.0136536475,0.240326540640254
Yarraville,AU,-37.81667,144.9,15636,9.65739517984351,AUS,64997.0136536475,0.16410597316581646
Wollert,AU,-37.58333,145.03333,24407,10.102666226396506,AUS,64997.0136536475,0.17167236524736373
Wodonga,AU,-36.12179,146.88809,18582,9.830002463273651,AUS,64997.0136536475,0.16703905042892064
Wheelers Hill,AU,-37.9,145.18333,20652,9.93561586628765,AUS,64997.0136536475,0.16883371554909093
Westmead,AU,-33.80383,150.98768,17835,9.788974165747367,AUS,64997.0136536475,0.1663418656738699
Werribee,AU,-37.9,144.66667,50027,10.820338127668798,AUS,64997.0136536475,0.18386760460319587
Warwick,AU,-28.21901,152.03438,15380,9.64088826045181,AUS,64997.0136536475,0.16382547474773385
Warrnambool,AU,-38.38176,142.48799,29176,10.281136006647518,AUS,64997.0136536475,0.17470506261796634
Warragul,AU,-38.15912,145.93118,15284,9.634627234324935,AUS,64997.0136536475,0.16371908252017833
Wantirna South,AU,-37.88333,145.21667,20754,9.940542460487139,AUS,64997.0136536475,0.16891743207103543
Wangaratta,AU,-36.35846,146.32056,19318,9.868844346592555,AUS,64997.0136536475,0.1676990819325445
Wahroonga,AU,-33.71816,151.11561,17652,9.778661019589283,AUS,64997.0136536475,0.1661666166698521
Upper Coomera,AU,-27.87683,153.28572,24956,10.124909622951998,AUS,64997.0136536475,0.17205034234887773
Truganina,AU,-37.81667,144.75,36305,10.499738295850376,AUS,64997.0136536475,0.1784197228071636
Traralgon,AU,-38.19528,146.5415,24605,10.110745594620115,AUS,64997.0136536475,0.17180965615865082
Townsville,AU,-19.26639,146.80569,180820,12.10526287063775,AUS,64997.0136536475,0.2057020456158058
Toowoomba,AU,-27.56056,151.95386,140303,11.851566776019137,AUS,64997.0136536475,0.20139104417903647
Thornbury,AU,-37.75819,145.00583,19005,9.85250999777126,AUS,64997.0136536475,0.16742151596786872
Thomastown,AU,-37.68333,145.01667,20234,9.915169057309965,AUS,64997.0136536475,0.1684862674615961
Templestowe,AU,-37.75405,145.14864,16966,9.73902556004294,AUS,64997.0136536475,0.16549310010150223
Tarneit,AU,-37.83634,144.65952,56370,10.939710120850858,AUS,64997.0136536475,0.1858960663928482
Taree,AU,-31.91099,152.45387,16359,9.702594610156739,AUS,64997.0136536475,0.1648740370546769
Tamworth,AU,-31.09048,150.92905,63920,11.065403224873476,AUS,64997.0136536475,0.18803194141626195
Sydney,AU,-33.86785,151.20732,5231147,15.470141314821944,AUS,64997.0136536475,0.2628806782992903
Surry Hills,AU,-33.88374,151.21282,16492,9.710691327448153,AUS,64997.0136536475,0.1650116227748232
Surfers Paradise,AU,-28.00274,153.42999,31073,10.344126735651946,AUS,64997.0136536475,0.17577545009732218
Sunbury,AU,-37.57742,144.72607,38851,10.567514834522221,AUS,64997.0136536475,0.17957143448815274
Strathfield,AU,-33.88096,151.07986,25769,10.15696630364641,AUS,64997.0136536475,0.1725950744100449
Springvale,AU,-37.94853,145.15274,22174,10.00672080717778,AUS,64997.0136536475,0.17004198603035148
South Yarra,AU,-37.83834,144.99149,25237,10.136106074212856,AUS,64997.0136536475,0.17224060116048787
Southport,AU,-27.96724,153.39796,32965,10.4032320062913,AUS,64997.0136536475,0.17677981284492358
Shepparton,AU,-36.38047,145.39867,51631,10.851896914291743,AUS,64997.0136536475,0.184403876060897
Seven Hills,AU,-33.78333,150.93333,19196,9.86250929580757,AUS,64997.0136536475,0.16759143182040093
Seaford,AU,-38.1,145.13333,17215,9.75359446296151,AUS,64997.0136536475,0.16574066623573275
Saint Kilda,AU,-37.8676,144.98099,19490,9.877708099548641,AUS,64997.0136536475,0.1678497017195235
Saint Ives,AU,-33.72976,151.15977,18384,9.819290393735372,AUS,64997.0136536475,0.16685702260843047
Saint Albans,AU,-37.73333,144.8,35091,10.465728463248274,AUS,64997.0136536475,0.17784180126906365
Ryde,AU,-33.8188,151.1062,26385,10.180588845443722,AUS,64997.0136536475,0.17299648702059947
Rowville,AU,-37.93333,145.23333,33571,10.421447665202718,AUS,64997.0136536475,0.17708934749446903
Rockhampton,AU,-23.38032,150.50595,78592,11.272037915927179,AUS,64997.0136536475,0.19154323886590563
Rockdale,AU,-33.95,151.13333,15436,9.644522504181841,AUS,64997.0136536475,0.1638872306449434
Ringwood,AU,-37.81667,145.23333,19144,9.859796863911395,AUS,64997.0136536475,0.1675453400671198
Richmond,AU,-37.81819,145.00176,28587,10.26074232833987,AUS,64997.0136536475,0.1743585173681569
Reservoir,AU,-37.71667,145.0,51096,10.841481066053516,AUS,64997.0136536475,0.18422688186322259
Quakers Hill,AU,-33.73333,150.88333,26904,10.20006742192352,AUS,64997.0136536475,0.1733274821481235
Preston,AU,-37.75,145.01667,33790,10.427949773825027,AUS,64997.0136536475,0.17719983638336953
Port Melbourne,AU,-37.83961,144.94228,17633,9.777584135646972,AUS,64997.0136536475,0.16614831741999764
Port Macquarie,AU,-31.43084,152.90894,45692,10.729700392283613,AUS,64997.0136536475,0.1823274176797099
Point Cook,AU,-37.91482,144.75088,66781,11.109188862135733,AUS,64997.0136536475,0.18877598103354978
Pascoe Vale,AU,-37.73333,144.93333,18171,9.807637226879294,AUS,64997.0136536475,0.16665900293006297
Palm Beach,AU,-28.11694,153.46584,15205,9.629445365788381,AUS,64997.0136536475,0.1636310281780734
Pakenham,AU,-38.07018,145.47411,54118,10.898940604656513,AUS,64997.0136536475,0.18520327905154352
Orange,AU,-33.28397,149.10018,38408,10.556047086114289,AUS,64997.0136536475,0.17937656558432735
Officer,AU,-38.05916,145.40947,18503,9.825742203911275,AUS,64997.0136536475,0.1669666567869932
North Melbourne,AU,-37.79798,144.94512,15395,9.641863014403636,AUS,64997.0136536475,0.16384203852532425
Northcote,AU,-37.76667,145.0,25276,10.13765017033277,AUS,64997.0136536475,0.17226683964319478
Noble Park,AU,-37.96667,145.16667,30921,10.33922318366254,AUS,64997.0136536475,0.17569212512654017
Newcastle,AU,-32.92953,151.7801,348539,12.761508280214633,AUS,64997.0136536475,0.21685347822974582
Nerang,AU,-27.98941,153.33633,16739,9.725556344043467,AUS,64997.0136536475,0.1652642207030504
Narre Warren,AU,-38.03333,145.3,27689,10.228826616165007,AUS,64997.0136536475,0.17381618075375932
Narangba,AU,-27.20338,152.95923,18217,9.810165395304756,AUS,64997.0136536475,0.1667019635350772
Mulgrave,AU,-37.92845,145.17708,19889,9.897972371848018,AUS,64997.0136536475,0.16819404800175153
Mount Waverley,AU,-37.87709,145.12939,35340,10.472799042021169,AUS,64997.0136536475,0.17796195004508072
Mount Martha,AU,-38.26667,145.01667,19846,9.895808141192258,AUS,64997.0136536475,0.16815727171049444
Mount Gambier,AU,-37.8318,140.77919,25030,10.127870335685289,AUS,64997.0136536475,0.1721006530833266
Mount Eliza,AU,-38.18333,145.08333,18734,9.838148711227788,AUS,64997.0136536475,0.16717747781262698
Mount Druitt,AU,-33.76667,150.81667,16682,9.722145515855674,AUS,64997.0136536475,0.16520626125657073
Mosman,AU,-33.83902,151.23956,27844,10.234408696023769,AUS,64997.0136536475,0.17391103579804948
Mornington,AU,-38.21792,145.03876,25759,10.15657818021829,AUS,64997.0136536475,0.1725884791147614
Morayfield,AU,-27.10876,152.94907,21221,9.962793658433535,AUS,64997.0136536475,0.1692955417398538
South Morang,AU,-37.65,145.1,24989,10.126231023828998,AUS,64997.0136536475,0.17207279662074126
Mooroolbark,AU,-37.78247,145.31682,23059,10.04585479382305,AUS,64997.0136536475,0.17070698118097802
Moonee Ponds,AU,-37.76667,144.91667,16224,9.69430854157229,AUS,64997.0136536475,0.16473323373002807
Mitcham,AU,-37.81667,145.2,16795,9.728896041804084,AUS,64997.0136536475,0.16532097144596603
Miranda,AU,-34.03857,151.10005,15111,9.623244409181346,AUS,64997.0136536475,0.1635256566985382
Mill Park,AU,-37.66667,145.06667,28712,10.265105260864017,AUS,64997.0136536475,0.17443265571233757
Mildura,AU,-34.18551,142.16251,32936,10.402351924902842,AUS,64997.0136536475,0.17676485781719317
Merrylands,AU,-33.83333,150.98333,29508,10.292450580544786,AUS,64997.0136536475,0.17489732866132376
Mernda,AU,-37.60075,145.09555,23369,10.059208427532903,AUS,64997.0136536475,0.17093389651523183
Melbourne,AU,-37.814,144.96332,4917750,15.40836187013898,AUS,64997.0136536475,0.2618308739056064
Mascot,AU,-33.92598,151.19347,15985,9.679468618185965,AUS,64997.0136536475,0.16448106220513262
Maryborough,AU,-25.54073,152.70493,15479,9.647304147143718,AUS,64997.0136536475,0.16393449848650501
Marrickville,AU,-33.90741,151.15546,26140,10.171260241993542,AUS,64997.0136536475,0.17283796813233185
Maroubra,AU,-33.95,151.23333,30224,10.316424675482994,AUS,64997.0136536475,0.1753047151363865
Manly,AU,-33.79798,151.28826,16170,9.690974793577944,AUS,64997.0136536475,0.16467658409017033
Maitland,AU,-32.73308,151.5574,67132,11.114431005342865,AUS,64997.0136536475,0.18886505960975597
Mackay,AU,-21.15345,149.16554,123183,11.721434451517831,AUS,64997.0136536475,0.19917973446716006
Liverpool,AU,-33.91938,150.92588,27545,10.223612613477277,AUS,64997.0136536475,0.17372758036315453
Lilydale,AU,-37.75,145.35,17348,9.761290146826328,AUS,64997.0136536475,0.1658714372838564
Lidcombe,AU,-33.86436,151.0397,19791,9.893033094632269,AUS,64997.0136536475,0.1681101159601263
Launceston,AU,-41.43876,147.13467,87345,11.377632521726046,AUS,64997.0136536475,0.19333758456917058
Lara,AU,-38.02388,144.40617,15919,9.675331459398373,AUS,64997.0136536475,0.16441076038395458
Langwarrin,AU,-38.16667,145.16667,22146,10.005457326119846,AUS,64997.0136536475,0.17002051597711998
Lalor,AU,-37.66667,145.01667,23219,10.052769255251883,AUS,64997.0136536475,0.17082447708961232
Lakemba,AU,-33.91972,151.07592,16921,9.736369829484445,AUS,64997.0136536475,0.1654479718614694
Kogarah,AU,-33.9681,151.13564,16416,9.706072662294519,AUS,64997.0136536475,0.16493313882282065
Keysborough,AU,-37.99116,145.17385,30018,10.30958579350671,AUS,64997.0136536475,0.17518850353261714
Kew,AU,-37.80639,145.03086,24499,10.106428396532818,AUS,64997.0136536475,0.17173629496960638
Kensington,AU,-33.92019,151.22241,15021,9.617271072245957,AUS,64997.0136536475,0.1634241531095709
Hornsby,AU,-33.70244,151.09931,22335,10.0139550055621,AUS,64997.0136536475,0.1701649151581158
Hobart,AU,-42.87936,147.32941,247086,12.417495780313493,AUS,64997.0136536475,0.21100775016061687
Hawthorn South,AU,-37.8329,145.0367,21177,9.9607181859904,AUS,64997.0136536475,0.16926027369720703
Hawthorn,AU,-37.81992,145.0358,22322,10.01337281606537,AUS,64997.0136536475,0.17015502214119468
Hampton Park,AU,-38.03333,145.25,26082,10.169039040099916,AUS,64997.0136536475,0.1728002237414725
Griffith,AU,-34.28853,146.05093,18154,9.806701283848437,AUS,64997.0136536475,0.16664309865783986
Greenvale,AU,-37.63333,144.86667,21274,9.965287953441575,AUS,64997.0136536475,0.1693379267414028
Greensborough,AU,-37.70462,145.10302,21070,9.955652966516807,AUS,64997.0136536475,0.16917420154674276
Granville,AU,-33.8406,151.00748,16716,9.72418144470263,AUS,64997.0136536475,0.16524085734366298
Goulburn,AU,-34.75155,149.72086,22645,10.027738514873985,AUS,64997.0136536475,0.17039913527307887
Gold Coast,AU,-28.00029,153.43088,640778,13.370439902663707,AUS,64997.0136536475,0.22720091815868368
Glen Waverley,AU,-37.87811,145.16476,42642,10.660618412837621,AUS,64997.0136536475,0.1811535229333432
Glenroy,AU,-37.7,144.93333,23792,10.077146698751429,AUS,64997.0136536475,0.17123871757726858
Glen Iris,AU,-37.86667,145.06667,26131,10.170915895960642,AUS,64997.0136536475,0.17283211673661047
Glenferrie,AU,-37.83333,145.05,21177,9.9607181859904,AUS,64997.0136536475,0.16926027369720703
Gladstone,AU,-23.84852,151.25775,30489,10.3251540399823,AUS,64997.0136536475,0.1754530512901423
Geelong,AU,-38.14711,144.36069,268984,12.50241089494743,AUS,64997.0136536475,0.21245069385961488
Frankston East,AU,-38.13333,145.13333,34457,10.447496470092352,AUS,64997.0136536475,0.17753198905532613
Frankston,AU,-38.14458,145.12291,37331,10.527606146685637,AUS,64997.0136536475,0.17889327501210037
Footscray,AU,-37.8,144.9,17131,9.748703338735261,AUS,64997.0136536475,0.16565755244717215
Fairfield,AU,-33.86667,150.95,17932,9.794397869948424,AUS,64997.0136536475,0.16643402947575467
Essendon,AU,-37.74981,144.9109,21240,9.963688555226884,AUS,64997.0136536475,0.16931074852247174
Epping,AU,-37.65,145.03333,33489,10.41900216578825,AUS,64997.0136536475,0.17704779166561307
Epping,AU,-33.77271,151.08184,23435,10.062028580664679,AUS,64997.0136536475,0.1709818187515645
Engadine,AU,-34.06564,151.01266,17141,9.749286871458828,AUS,64997.0136536475,0.16566746828924883
Eltham,AU,-37.73333,145.15,18847,9.844162086451313,AUS,64997.0136536475,0.16727966176333942
Eight Mile Plains,AU,-27.58333,153.1,15364,9.639847474564585,AUS,64997.0136536475,0.1638077889041187
Eastwood,AU,-33.79176,151.08057,17792,9.786560400506836,AUS,64997.0136536475,0.16630084909678938
Earlwood,AU,-33.9209,151.12506,17592,9.775256374639046,AUS,64997.0136536475,0.16610876229375607
Dubbo,AU,-32.24295,148.60484,43516,10.68090694533025,AUS,64997.0136536475,0.18149828146365146
Doreen,AU,-37.6,145.15,27122,10.208137355405476,AUS,64997.0136536475,0.17346461273693936
Doncaster East,AU,-37.78761,145.14888,30926,10.339384867764494,AUS,64997.0136536475,0.1756948725886045
Doncaster,AU,-37.78828,145.12373,25020,10.127470751247781,AUS,64997.0136536475,0.17209386303365398
Deer Park,AU,-37.76722,144.76657,18145,9.806205429729575,AUS,64997.0136536475,0.16663467271883572
Deception Bay,AU,-27.19354,153.02631,19539,9.880218925596774,AUS,64997.0136536475,0.1678923676293683
Dandenong,AU,-37.98333,145.2,30127,10.313210250896933,AUS,64997.0136536475,0.17525009313272608
Croydon,AU,-37.8,145.28333,26502,10.185013213113992,AUS,64997.0136536475,0.1730716693185848
Cronulla,AU,-34.06251,151.14961,17703,9.781545881730885,AUS,64997.0136536475,0.16621563849202886
Cranbourne,AU,-38.11342,145.28326,21281,9.965616924001678,AUS,64997.0136536475,0.169343516865127
Craigieburn,AU,-37.6,144.95,65178,11.084892610144374,AUS,64997.0136536475,0.18836312021517448
Corio,AU,-38.08333,144.38333,15215,9.630102784785171,AUS,64997.0136536475,0.16364219955319442
Coorparoo,AU,-27.49325,153.05826,15965,9.678216740205745,AUS,64997.0136536475,0.1644597893204258
Coogee,AU,-33.9205,151.25522,15333,9.63782786411884,AUS,64997.0136536475,0.16377347011199692
Coffs Harbour,AU,-30.29626,153.11351,26672,10.191407096789248,AUS,64997.0136536475,0.17318031916497678
Coburg,AU,-37.75,144.96667,26574,10.187726203210149,AUS,64997.0136536475,0.17311777055723435
Clayton,AU,-37.91667,145.11667,18988,9.851615143125416,AUS,64997.0136536475,0.16740630990145397
Wollongong,AU,-34.424,150.89345,280153,12.543094730956822,AUS,64997.0136536475,0.2131420252565504
Chatswood,AU,-33.8,151.18333,25140,10.132255258600559,AUS,64997.0136536475,0.17217516510534359
Cessnock,AU,-32.83211,151.35623,15076,9.62092568277892,AUS,64997.0136536475,0.16348625509534295
Caulfield North,AU,-37.8739,145.02485,16903,9.735305559295893,AUS,64997.0136536475,0.16542988695433333
Castle Hill,AU,-33.73333,151.0,39284,10.578598045609922,AUS,64997.0136536475,0.17975976903463017
Carrum Downs,AU,-38.09968,145.17248,21976,9.997751730926211,AUS,64997.0136536475,0.16988957650798522
Carnegie,AU,-37.89359,145.05534,17909,9.793114495054757,AUS,64997.0136536475,0.1664122213709873
Carlton,AU,-37.8,144.96667,16055,9.683837890476173,AUS,64997.0136536475,0.16455530827955106
Carlingford,AU,-33.78269,151.04888,24131,10.091294039560653,AUS,64997.0136536475,0.17147912020012612
Capalaba,AU,-27.54333,153.20287,17027,9.742614326948043,AUS,64997.0136536475,0.1655540832211178
Canberra,AU,-35.28346,149.12807,367752,12.815166796146249,AUS,64997.0136536475,0.2177652854833177
Camberwell,AU,-37.84205,145.0694,21965,9.997251082348292,AUS,64997.0136536475,0.1698810690978023
Cairns,AU,-16.92366,145.76613,153075,11.938689809070203,AUS,64997.0136536475,0.20287150654572556
Caboolture,AU,-27.08465,152.9511,26341,10.178919902558992,AUS,64997.0136536475,0.17296812704452347
Burwood,AU,-33.88333,151.1,18224,9.81054955687686,AUS,64997.0136536475,0.16670849150742056
Burnie,AU,-41.05584,145.90375,19972,9.902136640465171,AUS,64997.0136536475,0.16826481049424727
Bundaberg,AU,-24.86621,152.3479,50148,10.822753853011813,AUS,64997.0136536475,0.18390865448786295
Buderim,AU,-26.68443,153.05705,28774,10.267262233590083,AUS,64997.0136536475,0.17446930867120605
Brunswick,AU,-37.76667,144.96667,24896,10.122502593266558,AUS,64997.0136536475,0.1720094402275901
Broken Hill,AU,-31.9652,141.4512,18027,9.799681383810539,AUS,64997.0136536475,0.16652381105432018
Brisbane,AU,-27.46794,153.02809,2582007,14.76407794875728,AUS,64997.0136536475,0.25088270020612796
Brighton,AU,-37.90561,145.00279,23252,10.05418943494962,AUS,64997.0136536475,0.17084860988805614
Boronia,AU,-37.86667,145.28333,23607,10.069340916622775,AUS,64997.0136536475,0.17110607565378005
Blacktown,AU,-33.76667,150.91667,46942,10.756689378738994,AUS,64997.0136536475,0.18278603553727293
Bexley,AU,-33.95,151.11667,19664,9.88659568486591,AUS,64997.0136536475,0.16800072648452727
Berwick,AU,-38.03333,145.35,50298,10.8257404751745,AUS,64997.0136536475,0.18395940549549586
Bentleigh East,AU,-37.91928,145.05301,30159,10.314271822121892,AUS,64997.0136536475,0.17526813217697276
Bentleigh,AU,-37.91806,145.03544,17921,9.793784287444165,AUS,64997.0136536475,0.16642360300442324
Bendigo,AU,-36.75818,144.28024,103034,11.542824015316091,AUS,64997.0136536475,0.19614464696120043
Baulkham Hills,AU,-33.75881,150.99292,36792,10.513062888672096,AUS,64997.0136536475,0.17864614465605
Bathurst,AU,-33.41665,149.5806,33110,10.407620832440994,AUS,64997.0136536475,0.17685439119373697
Banora Point,AU,-28.21298,153.53634,15868,9.672122799562842,AUS,64997.0136536475,0.1643562363394206
Bankstown,AU,-33.91667,151.03333,34933,10.461215845988338,AUS,64997.0136536475,0.17776511936538505
Ballarat,AU,-37.56622,143.84957,116201,11.663085334955786,AUS,64997.0136536475,0.19818822087799207
Bairnsdale,AU,-37.82289,147.61041,15411,9.642901705746048,AUS,64997.0136536475,0.1638596887768042
Auburn,AU,-33.85,151.03333,37245,10.52529983549145,AUS,64997.0136536475,0.17885408437778366
Ashfield,AU,-33.88834,151.12274,23749,10.075337809462788,AUS,64997.0136536475,0.17120797952300718
Ascot Vale,AU,-37.77988,144.92276,15197,9.62891911922973,AUS,64997.0136536475,0.16362208578708448
Armidale,AU,-30.50123,151.66553,24504,10.106632457343649,AUS,64997.0136536475,0.1717397625296806
Albany Creek,AU,-27.35364,152.96848,15532,9.650722071987907,AUS,64997.0136536475,0.16399257852489196
Maroochydore,AU,-26.66008,153.09953,18342,9.817003309314352,AUS,64997.0136536475,0.16681815869040348
Cheltenham,AU,-37.96944,145.04806,23992,10.085517400120422,AUS,64997.0136536475,0.17138095904804385
Randwick,AU,-33.91439,151.24895,28943,10.273118207635076,AUS,64997.0136536475,0.17456881793862145
Dee Why,AU,-33.7511,151.28886,21145,9.959206041292472,AUS,64997.0136536475,0.16923457815792342
Umina Beach,AU,-33.52314,151.31325,16413,9.705889908189658,AUS,64997.0136536475,0.1649300333228727
Palmerston,AU,-12.48602,130.9833,25000,10.12667110305036,AUS,64997.0136536475,0.1720802747892895
Hervey Bay,AU,-25.28762,152.76936,52230,10.863431467331687,AUS,64997.0136536475,0.1845998801610092
Sydney Central Business District,AU,-33.86482,151.20773,25654,10.152493763376064,AUS,64997.0136536475,0.17251907352575674
Kingsford,AU,-33.92399,151.22749,15338,9.638153883748108,AUS,64997.0136536475,0.1637790100912083
Springfield Lakes,AU,-27.66757,152.92488,15081,9.621257258762592,AUS,64997.0136536475,0.16349188949245166
Bracken Ridge,AU,-27.3171,153.03097,16701,9.723283751713176,AUS,64997.0136536475,0.16522560304590514
Kallangur,AU,-27.25204,152.99226,20222,9.91457584952155,AUS,64997.0136536475,0.16847618721328952
North Lakes,AU,-27.22426,153.02075,21260,9.964629687478366,AUS,64997.0136536475,0.16932674097396938
The Gap,AU,-27.44187,152.93861,16371,9.703327837612294,AUS,64997.0136536475,0.16488649662611463
Caroline Springs,AU,-37.74124,144.73631,24488,10.105979316119466,AUS,64997.0136536475,0.17172866384580018
Hoppers Crossing,AU,-37.88264,144.7003,37216,10.524520925120765,AUS,64997.0136536475,0.1788408485267068
Logan City,AU,-27.63917,153.10944,326615,12.696540447908264,AUS,64997.0136536475,0.21574949427272988
Carindale,AU,-27.50578,153.10236,15418,9.643355794171352,AUS,64997.0136536475,0.16386740500064614
Parramatta,AU,-33.8178,151.00348,26876,10.199026181265689,AUS,64997.0136536475,0.17330978857669235
Ferntree Gully,AU,-37.88461,145.29539,27398,10.218261795359789,AUS,64997.0136536475,0.17363665509831328
Adelaide Hills,AU,-34.91119,138.70735,60394,11.008661599039378,AUS,64997.0136536475,0.18706774356030695
Canning Vale,AU,-32.05799,115.91814,34504,10.448859520054702,AUS,64997.0136536475,0.1775551510608545
Glenmore Park,AU,-33.79068,150.6693,22863,10.037318900169648,AUS,64997.0136536475,0.1705619326343725
Southbank,AU,-37.8228,144.96434,22631,10.027120112981404,AUS,64997.0136536475,0.17038862690695117
Docklands,AU,-37.8149,144.95052,15495,9.648337205086833,AUS,64997.0136536475,0.1639520530108808
Helensvale,AU,-27.91828,153.33275,16839,9.731512287796317,AUS,64997.0136536475,0.1653654287335266
Elwood,AU,-37.88214,144.98215,15153,9.626019802491319,AUS,64997.0136536475,0.16357281834115187
Balwyn North,AU,-37.79086,145.09386,20015,9.904287232706693,AUS,64997.0136536475,0.16830135503095775
Malvern East,AU,-37.87397,145.04253,22296,10.012207419250371,AUS,64997.0136536475,0.17013521881173702
Brighton East,AU,-37.90232,145.01734,16757,9.726631035173233,AUS,64997.0136536475,0.16528248269092796
Redbank Plains,AU,-27.64613,152.85965,19094,9.857181799659617,AUS,64997.0136536475,0.16750090286061253
Labrador,AU,-27.94402,153.39815,18326,9.816130661317876,AUS,64997.0136536475,0.16680332997665342
St Albans,AU,-37.74496,144.80049,37629,10.535556883587484,AUS,64997.0136536475,0.17902838011988204
Endeavour Hills,AU,-37.97695,145.25866,24455,10.104630863570671,AUS,64997.0136536475,0.17170574989088097
Kellyville,AU,-33.71028,150.95095,27676,10.228357022355016,AUS,64997.0136536475,0.17380820105035627
Taylors Lakes,AU,-37.69863,144.78631,15174,9.627404615927698,AUS,64997.0136536475,0.16359635016856475
Cherrybrook,AU,-33.72197,151.04607,18588,9.830325286907144,AUS,64997.0136536475,0.16704453609928505
Roxburgh Park,AU,-37.62581,144.92555,24129,10.091211158619078,AUS,64997.0136536475,0.1714777118226785
Prestons,AU,-33.94185,150.8717,15312,9.636457419815208,AUS,64997.0136536475,0.16375018245606812
Wyndham Vale,AU,-37.89138,144.62368,20518,9.929106565153747,AUS,64997.0136536475,0.16872310443943705
Ballajura,AU,-31.84062,115.89549,18459,9.823361508056843,AUS,64997.0136536475,0.16692620215065204
Willetton,AU,-32.05251,115.88782,19262,9.865941436462158,AUS,64997.0136536475,0.16764975342489932
Glenwood,AU,-33.73333,150.93284,16040,9.682903223616842,AUS,64997.0136536475,0.16453942569302749
Cabramatta,AU,-33.89743,150.93446,21634,9.982067652658985,AUS,64997.0136536475,0.16962306044652964
Campsie,AU,-33.9125,151.10279,24487,10.105938480625248,AUS,64997.0136536475,0.17172796993730896
Casula,AU,-33.95222,150.89949,15695,9.661161181805145,AUS,64997.0136536475,0.16416996800141645
Cranebrook,AU,-33.7061,150.7094,15649,9.658226195968298,AUS,64997.0136536475,0.16412009443840966
Greenacre,AU,-33.90034,151.05563,24361,10.100779820259904,AUS,64997.0136536475,0.17164030996650714
Greystanes,AU,-33.82346,150.94607,23511,10.065266208098754,AUS,64997.0136536475,0.17103683503607217
Ellenbrook,AU,-31.76737,115.96936,24668,10.113302673639005,AUS,64997.0136536475,0.17185310803496345
Alexandra Hills,AU,-27.53221,153.22889,16043,9.683090226889943,AUS,64997.0136536475,0.16454260339814838
Calamvale,AU,-27.62329,153.04785,16927,9.736724334658026,AUS,64997.0136536475,0.16545399588921386
Yagoona,AU,-33.9049,151.01996,17908,9.79305865876674,AUS,64997.0136536475,0.16641127255733595
Highton,AU,-38.17058,144.3114,18388,9.819507938740854,AUS,64997.0136536475,0.16686071930243201
Pacific Pines,AU,-27.93994,153.31436,16605,9.717519354821976,AUS,64997.0136536475,0.16512764992874174
Robina,AU,-28.07071,153.39329,23140,10.049361215025671,AUS,64997.0136536475,0.1707665650183451
Paralowie,AU,-34.75705,138.60819,16530,9.712992685053011,AUS,64997.0136536475,0.16505072923389574
Baldivis,AU,-32.32889,115.83047,37697,10.537362321631003,AUS,64997.0136536475,0.17905905952790094
Dianella,AU,-31.88822,115.87186,24169,10.09286747369753,AUS,64997.0136536475,0.1715058572172447
Duncraig,AU,-31.83291,115.7759,15982,9.679280936368654,AUS,64997.0136536475,0.16447787296966057
Morley,AU,-31.88775,115.9099,22539,10.023046787593767,AUS,64997.0136536475,0.17031940979257293
Thornlie,AU,-32.06003,115.955,23665,10.071794697944505,AUS,64997.0136536475,0.17114777221524824
Landsdale,AU,-31.8075,115.86599,15401,9.642252650099195,AUS,64997.0136536475,0.1638486595182327
Punchbowl,AU,-33.92893,151.05111,20174,9.91219949313815,AUS,64997.0136536475,0.16843580631661664
Parafield Gardens,AU,-34.78254,138.61077,16872,9.733469990198337,AUS,64997.0136536475,0.1653986955359997
Hillside,AU,-37.69047,144.74172,17331,9.7603097828598,AUS,64997.0136536475,0.1658547781765311
St Clair,AU,-33.79728,150.7847,19856,9.896311868787032,AUS,64997.0136536475,0.1681658314417275
Kirwan,AU,-19.30323,146.72531,21034,9.95394299602462,AUS,64997.0136536475,0.16914514439763792
Bundoora,AU,-37.69825,145.05967,28068,10.242421043498677,AUS,64997.0136536475,0.1740471878406268
Forest Lake,AU,-27.62563,152.96883,22581,10.024908407740467,AUS,64997.0136536475,0.17035104389060352
Sunnybank Hills,AU,-27.61025,153.05388,17842,9.789366553431428,AUS,64997.0136536475,0.16634853343070827
Rochedale South,AU,-27.59521,153.12332,15073,9.620726684403415,AUS,64997.0136536475,0.16348287356010882
Keilor East,AU,-37.73261,144.86504,15078,9.621058326365796,AUS,64997.0136536475,0.16348850907837909
Cranbourne East,AU,-38.11531,145.29814,24679,10.113748478019325,AUS,64997.0136536475,0.17186068348986736
Cranbourne North,AU,-38.07758,145.29871,24683,10.113910539440958,AUS,64997.0136536475,0.17186343736364126
Cranbourne West,AU,-38.0965,145.26707,19969,9.901986426409861,AUS,64997.0136536475,0.1682622579401402
Narre Warren South,AU,-38.04369,145.2923,30909,10.338835035126163,AUS,64997.0136536475,0.17568552940459767
Dandenong North,AU,-37.96649,145.2081,22550,10.02353468984558,AUS,64997.0136536475,0.17032770060726493
Frankston South,AU,-38.16604,145.13643,18801,9.841718526138497,AUS,64997.0136536475,0.16723813888520753
Sunshine West,AU,-37.79117,144.81637,18552,9.828386780026877,AUS,64997.0136536475,0.1670115954820533
Altona Meadows,AU,-37.88413,144.78367,18479,9.824444345195674,AUS,64997.0136536475,0.16694460256185392
Taylors Hill,AU,-37.70988,144.75483,15419,9.64342064711732,AUS,64997.0136536475,0.1638685070323651
Hurstville,AU,-33.9677,151.10149,29744,10.300416329622006,AUS,64997.0136536475,0.17503268886767015
West Pennant Hills,AU,-33.7457,151.04764,16162,9.690479958409808,AUS,64997.0136536475,0.1646681754659698
Melbourne City Centre,AU,-37.81501,144.96657,60057,11.003066040949562,AUS,64997.0136536475,0.18697265948342753
Adelaide city centre,AU,-34.92873,138.60334,19820,9.894497260697996,AUS,64997.0136536475,0.1681349962091601
Wollongong city centre,AU,-34.4279,150.89268,19108,9.857914707241372,AUS,64997.0136536475,0.16751335699650577
Tanki Leendert,AW,12.53914,-70.02004,21500,9.975854724662028,ABW,30559.5335346581,0.07970174309345983
San Nicolas,AW,12.43624,-69.90713,15200,9.62911649414402,ABW,30559.5335346581,0.07693149010439945
Oranjestad,AW,12.52398,-70.02703,29998,10.308919326755392,ABW,30559.5335346581,0.0823627511055297
Xankandi,AZ,39.8177,46.7528,53100,10.879951039444416,AZE,7770.594223351,0.022103047382588465
Əhmədbəyli,AZ,39.88074,48.39158,17242,9.755161543000131,AZE,7770.594223351,0.019817993392436006
Şuşa,AZ,39.76006,46.74989,18662,9.83429823318313,AZE,7770.594223351,0.019978762683260442
Salyan,AZ,39.59621,48.98479,36555,10.506600610392093,AZE,7770.594223351,0.021344571338557054
Saatlı,AZ,39.93214,48.36892,87000,11.373674891823535,AZE,7770.594223351,0.02310606675863954
Neftçala,AZ,39.3768,49.247,18661,9.834244649793968,AZE,7770.594223351,0.019978653826503157
Nakhchivan,AZ,39.20889,45.41222,64754,11.078366196657688,AZE,7770.594223351,0.02250613555875848
Lerik,AZ,38.77388,48.41497,87000,11.373674891823535,AZE,7770.594223351,0.02310606675863954
Lankaran,AZ,38.75428,48.85062,240300,12.389647583180738,AZE,7770.594223351,0.025170055140119506
Imishli,AZ,39.87095,48.05995,34178,10.439366699366225,AZE,7770.594223351,0.02120798301056423
Fizuli,AZ,39.60094,47.14529,26765,10.19488770435632,AZE,7770.594223351,0.020711314340718132
Jalilabad,AZ,39.20963,48.49186,36259,10.498470484308841,AZE,7770.594223351,0.021328054668455044
Pushkino,AZ,39.45833,48.545,18182,9.808242370619395,AZE,7770.594223351,0.019925829176229707
Beylagan,AZ,39.77556,47.61861,15599,9.655026193237628,AZE,7770.594223351,0.01961456450084922
Astara,AZ,38.45598,48.87498,15190,9.628458426207663,AZE,7770.594223351,0.01956059103981213
Şirvan,AZ,39.93778,48.929,70220,11.159402690578014,AZE,7770.594223351,0.022670764375409044
Ağdam,AZ,39.99096,46.92736,39451,10.582840022073885,AZE,7770.594223351,0.021499454694439268
Zaqatala,AZ,41.6316,46.64479,32171,10.37885178802396,AZE,7770.594223351,0.02108504459403074
Zabrat,AZ,40.47746,49.94174,21396,9.97100600426695,AZE,7770.594223351,0.020256489883583213
Yevlakh,AZ,40.61832,47.15014,127400,11.755094871382958,AZE,7770.594223351,0.02388093641111349
Göygöl,AZ,40.58584,46.3189,17816,9.78790833668397,AZE,7770.594223351,0.019884519788538123
Xaçmaz,AZ,41.46426,48.80565,37175,10.523418670764814,AZE,7770.594223351,0.021378737888016128
Ujar,AZ,40.51902,47.65423,15741,9.664087578702395,AZE,7770.594223351,0.019632973060920263
Tovuz,AZ,40.99249,45.62838,177200,12.085039960478053,AZE,7770.594223351,0.024551232804128655
Terter,AZ,40.34201,46.93161,18185,9.808407346285858,AZE,7770.594223351,0.01992616433076851
Sumqayıt,AZ,40.58972,49.66861,358675,12.790174753002015,AZE,7770.594223351,0.02598374179923023
Qaraçuxur,AZ,40.39667,49.97361,72989,11.198077724445678,AZE,7770.594223351,0.022749334224023345
Shamkhor,AZ,40.82975,46.0178,35421,10.475088375016577,AZE,7770.594223351,0.021280552996092907
Shamakhi,AZ,40.63141,48.64137,29403,10.288885998493978,AZE,7770.594223351,0.02090227556303198
Sheki,AZ,41.19194,47.17056,68400,11.133142723386813,AZE,7770.594223351,0.02261741622182011
Sabunçu,AZ,40.4425,49.94806,20996,9.95213484935765,AZE,7770.594223351,0.02021815239202537
Sabirabad,AZ,40.00869,48.47701,30612,10.329180034324262,AZE,7770.594223351,0.020984134477650587
Qusar,AZ,41.4275,48.4302,16022,9.68178046900788,AZE,7770.594223351,0.019668916861709376
Quba,AZ,41.36108,48.51341,22405,10.017084059118668,AZE,7770.594223351,0.02035009925976447
Hacıqabul,AZ,40.03874,48.94286,23102,10.04771775820736,AZE,7770.594223351,0.020412332821294902
Qazax,AZ,41.09246,45.36561,18903,9.847128818866743,AZE,7770.594223351,0.02000482852145062
Hacı Zeynalabdin,AZ,40.62333,49.55861,19019,9.853246336099382,AZE,7770.594223351,0.020017256497713253
Mingelchaur,AZ,40.76395,47.05953,106048,11.571656530433991,AZE,7770.594223351,0.02350827422475998
Maştağa,AZ,40.52983,50.00616,40092,10.598957034465641,AZE,7770.594223351,0.021532197037421257
Mardakan,AZ,40.49182,50.14292,15267,9.63351441386512,AZE,7770.594223351,0.01957086247709649
Lokbatan,AZ,40.3256,49.73376,30694,10.331855053861597,AZE,7770.594223351,0.020989568884787962
Kyurdarmir,AZ,40.34257,48.15649,19088,9.856867531900901,AZE,7770.594223351,0.02002461309905203
Khirdalan,AZ,40.44808,49.75502,37949,10.544024782823776,AZE,7770.594223351,0.02142060001308994
İsmayıllı,AZ,40.78485,48.15141,28776,10.267331735953192,AZE,7770.594223351,0.02085848723305618
Yeni Suraxanı,AZ,40.43026,50.03598,16127,9.688312170871095,AZE,7770.594223351,0.019682186270298458
Göyçay,AZ,40.65055,47.74219,42500,10.657282884047461,AZE,7770.594223351,0.021650688289106386
Hövsan,AZ,40.37444,50.08528,36293,10.49940771733497,AZE,7770.594223351,0.021329958694117468
Ganja,AZ,40.68278,46.36056,335600,12.723678233308531,AZE,7770.594223351,0.025848651510658734
Divichibazar,AZ,41.20117,48.98712,23248,10.054017399337825,AZE,7770.594223351,0.020425130789401114
Buzovna,AZ,40.51903,50.11438,24795,10.11843762882181,AZE,7770.594223351,0.020556003012954287
Biny Selo,AZ,40.45076,50.08686,24596,10.110379763264287,AZE,7770.594223351,0.020539633142945244
Barda,AZ,40.37577,47.12619,37372,10.5287037975555,AZE,7770.594223351,0.021389474830439306
Bilajari,AZ,40.4444,49.80566,42194,10.650057009592066,AZE,7770.594223351,0.021636008641662277
Baku,AZ,40.37767,49.89201,1116513,13.925721889368688,AZE,7770.594223351,0.028290650356932425
Amirdzhan,AZ,40.42639,49.98361,26798,10.196119852369948,AZE,7770.594223351,0.020713817497747866
Aghsu,AZ,40.57028,48.40087,17209,9.753245889205585,AZE,7770.594223351,0.0198141016665968
Ağdaş,AZ,40.64699,47.4738,23528,10.065988981880777,AZE,7770.594223351,0.020449451529010336
Agdzhabedy,AZ,40.05015,47.45937,43000,10.668978650219241,AZE,7770.594223351,0.021674448696936653
Bakıxanov,AZ,40.41894,49.96693,66686,11.107765310359019,AZE,7770.594223351,0.022565861011638808
Zenica,BA,44.20169,17.90397,164423,12.010203736350844,BIH,7655.59421024383,0.024038106930951916
Visoko,BA,43.98889,18.17806,17890,9.792053072089823,BIH,7655.59421024383,0.019598536709916757
Velika Kladuša,BA,45.18497,15.80579,19330,9.869465303921691,BIH,7655.59421024383,0.019753475256121925
Tuzla,BA,44.53842,18.66709,142486,11.867006046459133,BIH,7655.59421024383,0.02375150052048247
Trebinje,BA,42.71197,18.34362,33178,10.409672424652523,BIH,7655.59421024383,0.020834685601762146
Travnik,BA,44.22637,17.66583,31127,10.34586301466439,BIH,7655.59421024383,0.020706972745746788
Sarajevo,BA,43.84864,18.35644,696731,13.45415611078013,BIH,7655.59421024383,0.026928139634949933
Prijedor,BA,44.97991,16.71401,36347,10.500894460815237,BIH,7655.59421024383,0.021017264108161803
Mostar,BA,43.34333,17.80806,104518,11.557124152041899,BIH,7655.59421024383,0.023131280058158267
Lukavac,BA,44.54245,18.52618,44520,10.703716266952133,BIH,7655.59421024383,0.021423206619286
Gradačac,BA,44.87851,18.42764,15659,9.658864969544794,BIH,7655.59421024383,0.019331964225287053
Gračanica,BA,44.70307,18.3101,15758,9.665166909622071,BIH,7655.59421024383,0.019344577392621718
Goražde,BA,43.66795,18.97564,17650,9.77854771798028,BIH,7655.59421024383,0.019571506098833697
Doboj,BA,44.73179,18.08698,27235,10.212294906602857,BIH,7655.59421024383,0.020439639690069282
Cazin,BA,44.96694,15.94306,21741,9.987001152763945,BIH,7655.59421024383,0.019988720166592422
Bugojno,BA,44.05722,17.45083,41378,10.63052878474363,BIH,7655.59421024383,0.02127672379834847
Brčko,BA,44.86995,18.81012,38968,10.57052173723882,BIH,7655.59421024383,0.021156621270848
Bosanska Krupa,BA,44.8825,16.15139,15193,9.628655892063167,BIH,7655.59421024383,0.01927150155115348
Bijeljina,BA,44.75874,19.21437,37692,10.537229679803534,BIH,7655.59421024383,0.021089988093414166
Bihać,BA,44.81694,15.87083,75641,11.233766963459324,BIH,7655.59421024383,0.0224840891489388
Banja Luka,BA,44.77842,17.19386,221106,12.306402026226781,BIH,7655.59421024383,0.02463094001864159
Konjic,BA,43.65126,17.96082,15950,9.677276802172448,BIH,7655.59421024383,0.019368815024092302
Bridgetown,BB,13.10732,-59.62021,98511,11.497933647150992,BRB,22164.0260273876,0.06662533908108619
Thākurgaon,BD,26.03097,88.46989,71096,11.17180042080831,BGD,2716.48592677835,0.007934171996226794
Teknāf,BD,20.85829,92.29773,40557,10.610488327384608,BGD,2716.48592677835,0.007535530190516524
Tungi,BD,23.89154,90.40232,337579,12.729557798242919,BGD,2716.48592677835,0.00904048561582358
Sylhet,BD,24.89904,91.87198,237000,12.37581963951765,BGD,2716.48592677835,0.008789262063017595
Dohār,BD,23.59311,90.14251,45543,10.726434170630919,BGD,2716.48592677835,0.0076178745063754365
Jamālpur,BD,24.91965,89.94812,167900,12.031129798974042,BGD,2716.48592677835,0.008544464592850555
Shibganj,BD,25.00146,89.32266,378701,12.844504895101185,BGD,2716.48592677835,0.009122120625632899
Shibganj,BD,24.68501,88.15638,35961,10.490218104391584,BGD,2716.48592677835,0.007450114715901182
Sātkhira,BD,22.70817,89.07185,128918,11.76693957915092,BGD,2716.48592677835,0.008356837660320198
Sirajganj,BD,24.45771,89.70802,127481,11.755730457143693,BGD,2716.48592677835,0.008348876982669139
Netrakona,BD,24.88352,90.72898,79016,11.277418298172556,BGD,2716.48592677835,0.008009181428307543
Narsingdi,BD,23.92298,90.71768,281080,12.546398163005797,BGD,2716.48592677835,0.008910406309534618
Sandwīp,BD,22.51409,91.45491,52152,10.861936985140591,BGD,2716.48592677835,0.00771410811204298
Shāhzādpur,BD,24.17687,89.5988,102420,11.5368470486869,BGD,2716.48592677835,0.008193426782665394
Rāmganj,BD,23.1006,90.84989,55241,10.919478812515901,BGD,2716.48592677835,0.007754974108406695
Rājshāhi,BD,24.374,88.60114,763580,13.54577448838692,BGD,2716.48592677835,0.009620159738333989
Pirojpur,BD,22.57965,89.97521,54418,10.904468636571197,BGD,2716.48592677835,0.0077443139360841495
Panchagarh,BD,26.33338,88.55777,48531,10.789978653171763,BGD,2716.48592677835,0.007663003566589513
Patiya,BD,22.29543,91.979,51360,10.84663440857928,BGD,2716.48592677835,0.007703240277866787
Parbatipur,BD,25.66369,88.93093,48020,10.779393694214807,BGD,2716.48592677835,0.007655486167264953
Nārāyanganj,BD,23.61352,90.50298,223622,12.317716877227147,BGD,2716.48592677835,0.008747997692718779
Nālchiti,BD,22.63696,90.27195,38703,10.56369823284981,BGD,2716.48592677835,0.007502300035682452
Nāgarpur,BD,24.05783,89.87696,238422,12.38180168602984,BGD,2716.48592677835,0.008793510490677362
Nageswari,BD,25.96817,89.69153,49425,10.808231880509911,BGD,2716.48592677835,0.007675966942207765
Mymensingh,BD,24.75636,90.40646,225126,12.324419966392155,BGD,2716.48592677835,0.008752758202246155
Muktāgācha,BD,24.76484,90.25698,24684,10.113951050692963,BGD,2716.48592677835,0.007182891223884811
Mirzāpur,BD,24.10287,90.09841,41137,10.624687547538109,BGD,2716.48592677835,0.007545614424987838
Maulavi Bāzār,BD,24.48888,91.77075,57441,10.958531022057445,BGD,2716.48592677835,0.007782708845482571
Morrelgonj,BD,22.45566,89.85584,31647,10.362430234422439,BGD,2716.48592677835,0.007359360235765804
Mehendiganj,BD,22.82257,90.52859,39424,10.58215541183124,BGD,2716.48592677835,0.007515408257015429
Mathba,BD,22.28616,89.95883,29760,10.300954090533025,BGD,2716.48592677835,0.0073157001021337265
Lalmonirhat,BD,25.91719,89.44595,65127,11.084109843253813,BGD,2716.48592677835,0.007871894467219923
Lākshām,BD,23.24018,91.12143,82290,11.318017024670775,BGD,2716.48592677835,0.008038014496097106
Comilla,BD,23.46186,91.18503,1030000,13.845070331079134,BGD,2716.48592677835,0.009832718556450062
Rangpur,BD,25.74664,89.25166,1031388,13.846416995426745,BGD,2716.48592677835,0.009833674952568205
Kushtia,BD,23.9028,89.11943,135724,11.818386058773651,BGD,2716.48592677835,0.008393374762895612
Kālīganj,BD,23.40964,89.13801,45631,10.728364503773967,BGD,2716.48592677835,0.007619245421947687
Jhingergācha,BD,23.11134,89.09061,41957,10.644424396931921,BGD,2716.48592677835,0.007559631463590001
Joypur Hāt,BD,25.10147,89.02734,73068,11.199159479184567,BGD,2716.48592677835,0.007953602299905304
Ishurdi,BD,24.12858,89.06573,81995,11.314425744568778,BGD,2716.48592677835,0.008035463982040053
Habiganj,BD,24.38044,91.41299,88760,11.393702643319253,BGD,2716.48592677835,0.008091766146984047
Gaurnadi,BD,22.97372,90.22376,40519,10.60955095836262,BGD,2716.48592677835,0.0075348644744489025
Gafargaon,BD,24.432,90.5585,34177,10.439337441206854,BGD,2716.48592677835,0.007413979454100603
Feni,BD,23.0144,91.3966,84028,11.33891725633973,BGD,2716.48592677835,0.008052857764556649
Rāipur,BD,23.0391,90.76808,64652,11.07678978683568,BGD,2716.48592677835,0.007866695789794988
Sarankhola,BD,22.31006,89.79113,36470,10.504272703223904,BGD,2716.48592677835,0.007460096240836581
Dhaka,BD,23.7104,90.40744,10356500,16.153124996435427,BGD,2716.48592677835,0.01147189057902953
Chilmāri,BD,25.55613,89.67097,49736,10.814504401907575,BGD,2716.48592677835,0.007680421664073936
Chhāgalnāiya,BD,23.02475,91.51091,39335,10.579895409091776,BGD,2716.48592677835,0.0075138032112957226
Lālmohan,BD,22.33774,90.73708,42220,10.650673006578945,BGD,2716.48592677835,0.007564069203417901
Khagrachhari,BD,23.10787,91.97007,50364,10.827051768376782,BGD,2716.48592677835,0.007689332758071011
Chhātak,BD,25.03852,91.66958,39218,10.57691660222997,BGD,2716.48592677835,0.007511687673504598
Bhātpāra Abhaynagar,BD,23.01472,89.43936,42653,10.660876335157537,BGD,2716.48592677835,0.007571315570236788
Bherāmāra,BD,24.02452,88.99234,38159,10.549543125562224,BGD,2716.48592677835,0.00749224713000795
Bhairab Bāzār,BD,24.0524,90.9764,105457,11.566068048368315,BGD,2716.48592677835,0.008214179430281817
Bāndarban,BD,22.19534,92.21946,32523,10.389733557327729,BGD,2716.48592677835,0.007378750956315698
Kālia,BD,23.043,89.63094,40492,10.60888439864999,BGD,2716.48592677835,0.007534391086167107
Baniachang,BD,24.51863,91.35787,37807,10.540275999426688,BGD,2716.48592677835,0.0074856656507565735
Bājitpur,BD,24.21623,90.95002,34560,10.450481157684562,BGD,2716.48592677835,0.00742189368098266
Bagerhat,BD,22.65657,89.79123,266388,12.492712925504572,BGD,2716.48592677835,0.008872279249262432
Badarganj,BD,25.67419,89.05377,32600,10.392098241730961,BGD,2716.48592677835,0.007380430346572
Narail,BD,23.15509,89.49515,55112,10.917140901977048,BGD,2716.48592677835,0.007753313732851426
Tungipāra,BD,22.89983,89.90326,62210,11.03828711196595,BGD,2716.48592677835,0.00783935133024286
Sonārgaon,BD,23.65,90.61667,130000,11.775297421715827,BGD,2716.48592677835,0.008362773369689283
Sarishābāri,BD,24.75127,89.83126,81325,11.30622104760779,BGD,2716.48592677835,0.008029637036121457
Sakhipur,BD,24.31988,90.16943,40869,10.618151576558322,BGD,2716.48592677835,0.007540972602187336
Raojān,BD,22.53511,91.91919,25708,10.15459640413204,BGD,2716.48592677835,0.0072117574059580615
Phultala,BD,22.71673,89.51194,37985,10.544972949772182,BGD,2716.48592677835,0.0074890014077961895
Pālang,BD,23.21824,90.35076,67652,11.122146978513689,BGD,2716.48592677835,0.007898908302235583
Pār Naogaon,BD,24.80418,88.94875,192464,12.167669597997229,BGD,2716.48592677835,0.008641434661145225
Nabīnagar,BD,23.88791,90.96792,31671,10.363188288785967,BGD,2716.48592677835,0.007359898603215649
Lakshmīpur,BD,22.9443,90.83005,61703,11.030104037613835,BGD,2716.48592677835,0.007833539740622383
Kesabpur,BD,22.90725,89.21954,30926,10.339384867764494,BGD,2716.48592677835,0.0073429935002448515
Hājīganj,BD,23.25191,90.85508,44343,10.69973269109964,BGD,2716.48592677835,0.007598911212799202
Farīdpur,BD,23.60612,89.84064,112187,11.627931314479316,BGD,2716.48592677835,0.008258114496706635
Dinājpur,BD,25.62745,88.63779,206234,12.236771574279445,BGD,2716.48592677835,0.008690510633186498
Uttar Char Fasson,BD,22.22647,90.71275,48305,10.785311055528036,BGD,2716.48592677835,0.007659688655731855
Chattogram,BD,22.3384,91.83168,3920222,15.181659097903701,BGD,2716.48592677835,0.010781959033791448
Char Bhadrāsan,BD,23.30916,90.22698,34423,10.446509274518435,BGD,2716.48592677835,0.007419072864014762
Bera,BD,24.07821,89.63262,39604,10.58671065189838,BGD,2716.48592677835,0.007518643371931149
Burhānuddin,BD,22.49518,90.72391,45670,10.729218802151282,BGD,2716.48592677835,0.007619852141545818
Sātkania,BD,22.07639,92.04955,52005,10.859114375522656,BGD,2716.48592677835,0.007712103504965933
Cox’s Bāzār,BD,21.43973,92.00955,253788,12.444258492109613,BGD,2716.48592677835,0.008837867087027662
Khulna,BD,22.80979,89.56439,1500689,14.221435560304872,BGD,2716.48592677835,0.010100011772368456
Bhola,BD,22.68759,90.64403,99079,11.503682883603297,BGD,2716.48592677835,0.008169873713332498
Barishal,BD,22.70497,90.37013,202242,12.217225223691369,BGD,2716.48592677835,0.0086766288861428
Jessore,BD,23.16971,89.21371,243987,12.404874322738078,BGD,2716.48592677835,0.008809896593288777
Pābna,BD,24.00644,89.2372,186781,12.13769744039094,BGD,2716.48592677835,0.008620148543904589
Tāngāil,BD,24.24984,89.91655,180144,12.101517361142168,BGD,2716.48592677835,0.008594453583308783
Bogra,BD,24.85098,89.37108,210000,12.25486757159303,BGD,2716.48592677835,0.008703362344613587
Pīrgaaj,BD,25.85587,88.35943,34606,10.451811252722203,BGD,2716.48592677835,0.007422838309637171
Nawābganj,BD,24.59025,88.27444,142361,11.866128388415582,BGD,2716.48592677835,0.008427281191636864
Madaripur,BD,23.17097,90.20935,84789,11.347932890298049,BGD,2716.48592677835,0.008059260634979136
Sherpur,BD,25.01881,90.01751,107419,11.58450166345945,BGD,2716.48592677835,0.008227270916625675
Kishorganj,BD,24.43944,90.78291,90690,11.415213402954866,BGD,2716.48592677835,0.008107043010183336
Manikchari,BD,22.83957,91.84128,24813,10.119163289002817,BGD,2716.48592677835,0.007186592936561193
Bhāndāria,BD,22.48898,90.06273,30219,10.316259235826731,BGD,2716.48592677835,0.007326569760614317
Bibir Hat,BD,22.68347,91.79058,89030,11.396739902673568,BGD,2716.48592677835,0.008093923197522597
Saidpur,BD,25.77769,88.89169,199422,12.203183475896147,BGD,2716.48592677835,0.008666656487967174
Puthia,BD,24.36537,88.83431,159406,11.97921595905408,BGD,2716.48592677835,0.008507595572693125
Natore,BD,24.41112,88.98673,369138,12.818928545858316,BGD,2716.48592677835,0.009103956395492292
Azimpur,BD,23.7298,90.3854,96641,11.478768708318734,BGD,2716.48592677835,0.00815217975672693
Paotana Hat,BD,25.66473,89.5026,45911,10.734481799788199,BGD,2716.48592677835,0.007623589903311529
Paltan,BD,23.73625,90.41426,184492,12.12536680136356,BGD,2716.48592677835,0.008611391368947865
Joymontop,BD,23.78789,90.16472,56000,10.933124826700707,BGD,2716.48592677835,0.007764665458012578
Zwijndrecht,BE,51.21979,4.32664,18249,9.811920359010637,BEL,50807.2047084918,0.1303317716939846
Zwevegem,BE,50.81268,3.33848,23358,10.058737627806687,BEL,50807.2047084918,0.1336102463197309
Zottegem,BE,50.86955,3.81052,24434,10.103771809704256,BEL,50807.2047084918,0.13420843551193212
Zonhoven,BE,50.99064,5.36819,19922,9.899630122208823,BEL,50807.2047084918,0.1314968207785893
Zolder,BE,51.02455,5.30983,17289,9.757883578677337,BEL,50807.2047084918,0.1296140009559649
Zemst,BE,50.98318,4.46079,21096,9.956886129260823,BEL,50807.2047084918,0.13225735251612603
Zele,BE,51.06566,4.0403,20236,9.91526789107166,BEL,50807.2047084918,0.13170453731588905
Zedelgem,BE,51.14236,3.1368,21968,9.99738764772918,BEL,50807.2047084918,0.13279533432449142
Zaventem,BE,50.88365,4.47298,28188,10.246687109906768,BEL,50807.2047084918,0.1361067799334159
Wondelgem,BE,51.08705,3.70909,23546,10.066753702794923,BEL,50807.2047084918,0.13371672387122152
Woluwe-Saint-Lambert,BE,50.84389,4.42912,56584,10.943499211400042,BEL,50807.2047084918,0.14536253746125058
Wilrijk,BE,51.16734,4.39513,41403,10.63113277350364,BEL,50807.2047084918,0.14121337299810954
Willebroek,BE,51.06041,4.36019,22808,10.034910473896547,BEL,50807.2047084918,0.13329375015283304
Wevelgem,BE,50.8,3.16667,30954,10.340289815953332,BEL,50807.2047084918,0.13735010499803454
Wetteren,BE,51.00526,3.88341,22930,10.040244985890988,BEL,50807.2047084918,0.13336460849390383
Westerlo,BE,51.09049,4.91544,22579,10.024819837703653,BEL,50807.2047084918,0.13315971619776415
Wervik,BE,50.78069,3.03854,17340,9.760828918798548,BEL,50807.2047084918,0.12965312391887057
Wavre,BE,50.71717,4.60138,34305,10.443075544969771,BEL,50807.2047084918,0.13871540818817593
Watermael-Boitsfort,BE,50.80154,4.41436,25157,10.132931216398818,BEL,50807.2047084918,0.13459576001080636
Waterloo,BE,50.71469,4.3991,29778,10.30155872609058,BEL,50807.2047084918,0.13683563979889382
Waregem,BE,50.88898,3.42756,35896,10.488409005524973,BEL,50807.2047084918,0.13931757269981027
Walcourt,BE,50.25401,4.43796,17501,9.770070439095777,BEL,50807.2047084918,0.12977587906459265
Visé,BE,50.7376,5.69907,17054,9.744198694852747,BEL,50807.2047084918,0.12943222459730877
Vilvoorde,BE,50.92814,4.42938,36955,10.517483294790635,BEL,50807.2047084918,0.13970376658358527
Verviers,BE,50.58907,5.86241,52824,10.874739842484258,BEL,50807.2047084918,0.14444920652872578
Uccle,BE,50.80225,4.33943,82929,11.32575215744525,BEL,50807.2047084918,0.15044000465120444
Turnhout,BE,51.32254,4.94471,44000,10.691967639914864,BEL,50807.2047084918,0.14202144273675765
Tubize,BE,50.69059,4.2009,18000,9.798182590890704,BEL,50807.2047084918,0.13014929287305252
Tournai,BE,50.60715,3.38932,69554,11.14987308549367,BEL,50807.2047084918,0.14810380233681322
Torhout,BE,51.0656,3.10085,18933,9.848714526688836,BEL,50807.2047084918,0.130820508749122
Tongeren,BE,50.78054,5.46484,29816,10.302833979636116,BEL,50807.2047084918,0.13685257899610165
Tienen,BE,50.80745,4.9378,31743,10.3654590100846,BEL,50807.2047084918,0.13768442748978058
Tielt,BE,50.99931,3.32707,19299,9.867860374892977,BEL,50807.2047084918,0.13107482311631294
Tessenderlo,BE,51.06513,5.08856,16574,9.715650815054063,BEL,50807.2047084918,0.1290530230122844
Tervuren,BE,50.82372,4.51418,20623,9.934210725178968,BEL,50807.2047084918,0.13195615504613728
Temse,BE,51.12794,4.21372,26054,10.167964967343314,BEL,50807.2047084918,0.1350611134444478
Stekene,BE,51.2099,4.03651,16989,9.740380214665977,BEL,50807.2047084918,0.1293815037119254
Stabroek,BE,51.33189,4.37127,17294,9.758172721371269,BEL,50807.2047084918,0.12961784163935752
Soumagne,BE,50.61385,5.74679,15237,9.631547587032955,BEL,50807.2047084918,0.12793587954677432
Soignies,BE,50.57904,4.07129,24869,10.12141753679745,BEL,50807.2047084918,0.13444282376527464
Sint-Truiden,BE,50.81679,5.18647,37859,10.541650424763313,BEL,50807.2047084918,0.14002477865368482
Sint-Pieters-Leeuw,BE,50.77926,4.24355,30446,10.323742746116928,BEL,50807.2047084918,0.13713031021279232
Sint-Niklaas,BE,51.16509,4.1437,69010,11.142021191163188,BEL,50807.2047084918,0.14799950559756117
Sint-Kruis,BE,51.21399,3.24949,16000,9.680406499268875,BEL,50807.2047084918,0.12858487264514376
Sint-Katelijne-Waver,BE,51.06691,4.53469,19487,9.877554170509624,BEL,50807.2047084918,0.13120358583665004
Sint-Gillis-Waas,BE,51.21914,4.12374,17658,9.779000847413124,BEL,50807.2047084918,0.1298945017088217
Sint-Genesius-Rode,BE,50.74645,4.35754,17990,9.79762691183662,BEL,50807.2047084918,0.1301419117862762
Sint-Andries,BE,51.19696,3.17891,19336,9.869775638050593,BEL,50807.2047084918,0.13110026356338741
Sint-Amandsberg,BE,51.05947,3.74943,32115,10.377109627304575,BEL,50807.2047084918,0.1378391826781687
Seraing,BE,50.58362,5.50115,60737,11.014324810826807,BEL,50807.2047084918,0.14630331414072106
Schoten,BE,51.25251,4.50268,33622,10.422965635581258,BEL,50807.2047084918,0.13844828819297503
Schilde,BE,51.24107,4.58336,20373,9.922014857150012,BEL,50807.2047084918,0.13179415728938826
Schaerbeek,BE,50.86935,4.37737,132761,11.796313330498986,BEL,50807.2047084918,0.15669047032260308
Saint-Nicolas,BE,50.62837,5.53243,22586,10.025129798518233,BEL,50807.2047084918,0.13316383340832452
Saint-Josse-ten-Noode,BE,50.8538,4.37282,27366,10.217093186966197,BEL,50807.2047084918,0.1357136837537595
Saint-Gilles,BE,50.82763,4.34389,50221,10.824208456689599,BEL,50807.2047084918,0.1437779979583543
Saint-Ghislain,BE,50.44816,3.81886,22500,10.021315031649332,BEL,50807.2047084918,0.13311316184695512
Rotselaar,BE,50.95302,4.71665,15007,9.616338671246005,BEL,50807.2047084918,0.12773385946634866
Ronse,BE,50.74574,3.6005,24204,10.094314502373795,BEL,50807.2047084918,0.13408281406630942
Roeselare,BE,50.94653,3.12269,56016,10.933410495077375,BEL,50807.2047084918,0.14522852900782446
Rixensart,BE,50.71229,4.52529,21616,9.981235321158053,BEL,50807.2047084918,0.13258078291539221
Riemst,BE,50.80995,5.60131,15809,9.668397930203518,BEL,50807.2047084918,0.12842536278116895
Ranst,BE,51.18983,4.56533,17405,9.76457025334946,BEL,50807.2047084918,0.12970282007850892
Quaregnon,BE,50.44067,3.8653,18491,9.825093485108116,BEL,50807.2047084918,0.1305067503730009
Puurs,BE,51.07409,4.28844,15944,9.676900579444158,BEL,50807.2047084918,0.12853830350011877
Putte,BE,51.05337,4.63263,15276,9.634103708365723,BEL,50807.2047084918,0.12796983251518163
Poperinge,BE,50.85386,2.72659,19537,9.880116566212887,BEL,50807.2047084918,0.1312376221475421
Pont-à-Celles,BE,50.50518,4.36887,15909,9.674703121331833,BEL,50807.2047084918,0.12850911465649553
Péruwelz,BE,50.50819,3.59373,16647,9.720045368073471,BEL,50807.2047084918,0.1291113958750744
Peer,BE,51.1303,5.45952,15551,9.65194452670022,BEL,50807.2047084918,0.12820681216614976
Overijse,BE,50.77436,4.53461,23486,10.064202355576024,BEL,50807.2047084918,0.1336828343173851
Oupeye,BE,50.71184,5.6468,23594,10.068790104160488,BEL,50807.2047084918,0.13374377339752658
Oudenaarde,BE,50.85168,3.60891,31866,10.36932627056772,BEL,50807.2047084918,0.13773579632400723
Oostkamp,BE,51.15432,3.23128,21489,9.975342989636555,BEL,50807.2047084918,0.1325025150556353
Ostend,BE,51.21551,2.927,69011,11.142035681501754,BEL,50807.2047084918,0.1479996980727779
Nivelles,BE,50.59833,4.32848,24149,10.092039659080719,BEL,50807.2047084918,0.13405259731506558
Ninove,BE,50.82776,4.02657,34795,10.457257716627431,BEL,50807.2047084918,0.1389037900228199
Nijlen,BE,51.16096,4.67008,20792,9.942371670586095,BEL,50807.2047084918,0.13206455691189764
Neerpelt,BE,51.22807,5.4427,16122,9.68800210296374,BEL,50807.2047084918,0.12868576507500618
Namur,BE,50.4669,4.86746,110939,11.616744793609225,BEL,50807.2047084918,0.15430526083281682
Mouscron,BE,50.74497,3.20639,52069,10.860344246156945,BEL,50807.2047084918,0.14425798977346468
Mortsel,BE,51.16697,4.45127,24525,10.10748905832197,BEL,50807.2047084918,0.1342578117380374
Morlanwelz-Mariemont,BE,50.45502,4.24519,18233,9.811043262144848,BEL,50807.2047084918,0.1303201212133159
Montignies-sur-Sambre,BE,50.41081,4.49109,18765,9.839802000849994,BEL,50807.2047084918,0.1307021236379161
Mons,BE,50.45413,3.95229,95299,11.464785089642293,BEL,50807.2047084918,0.15228677956519054
Molenbeek-Saint-Jean,BE,50.8499,4.31248,97037,11.482857933347834,BEL,50807.2047084918,0.15252684120995602
Mol,BE,51.19188,5.11662,32659,10.393906366524456,BEL,50807.2047084918,0.13806229382268573
Middelkerke,BE,51.18532,2.82077,17789,9.786391780659882,BEL,50807.2047084918,0.12999267550042173
Merksem,BE,51.24623,4.44903,44435,10.701805230701613,BEL,50807.2047084918,0.14215211548883108
Merelbeke,BE,50.99447,3.74621,16684,9.722265391185474,BEL,50807.2047084918,0.1291408844496655
Menen,BE,50.79722,3.12245,31916,10.370894062184476,BEL,50807.2047084918,0.1377566213054158
Meise,BE,50.93934,4.32655,18497,9.825417897114205,BEL,50807.2047084918,0.13051105953878755
Mechelen-aan-de-Maas,BE,50.96589,5.69144,15374,9.640498092674719,BEL,50807.2047084918,0.12805476914383235
Mechelen,BE,51.02574,4.47762,77530,11.258433135362765,BEL,50807.2047084918,0.1495458058505936
Mariakerke,BE,51.07476,3.68289,17062,9.744667655527264,BEL,50807.2047084918,0.12943845380355262
Marcinelle,BE,50.39216,4.44388,23696,10.073103736832529,BEL,50807.2047084918,0.13380107139506564
Marchienne-au-Pont,BE,50.40573,4.3953,15154,9.626085789491903,BEL,50807.2047084918,0.12786333047135245
Marche-en-Famenne,BE,50.22678,5.34416,16856,9.732521279780308,BEL,50807.2047084918,0.1292771134529547
Manage,BE,50.50312,4.23589,22196,10.007712423593661,BEL,50807.2047084918,0.13293247835761898
Maldegem,BE,51.20737,3.44511,22092,10.003016095251029,BEL,50807.2047084918,0.13287009701217828
Maasmechelen,BE,50.96545,5.69452,36251,10.498249831174672,BEL,50807.2047084918,0.13944828842057935
Maaseik,BE,51.09802,5.78379,25201,10.134678635429639,BEL,50807.2047084918,0.13461897098377043
Louvain-la-Neuve,BE,50.66829,4.61443,29521,10.292891027096942,BEL,50807.2047084918,0.13672050672351033
Lommel,BE,51.23074,5.31349,31993,10.373303664201542,BEL,50807.2047084918,0.13778862805725142
Lokeren,BE,51.10364,3.99339,41438,10.63197774536807,BEL,50807.2047084918,0.1412245967622753
Lochristi,BE,51.09644,3.83194,19696,9.888221618865694,BEL,50807.2047084918,0.13134528158965558
Lille,BE,51.24197,4.82313,15466,9.64646400103814,BEL,50807.2047084918,0.12813401432503224
Lier,BE,51.13128,4.57041,33272,10.41250153627285,BEL,50807.2047084918,0.1383092935260652
Liège,BE,50.63373,5.56749,195278,12.18218458420162,BEL,50807.2047084918,0.16181599950554829
Leuven,BE,50.87959,4.70093,101032,11.523202475131168,BEL,50807.2047084918,0.1530627378964772
Lessines,BE,50.71104,3.83579,17687,9.780641722537283,BEL,50807.2047084918,0.12991629745870908
Lede,BE,50.96626,3.98594,16813,9.729967151695242,BEL,50807.2047084918,0.12924318696086343
Lebbeke,BE,51.00464,4.13457,17372,9.7626725558939,BEL,50807.2047084918,0.12967761295671495
Lanaken,BE,50.89318,5.6468,24771,10.117469262057952,BEL,50807.2047084918,0.13439037881840338
La Louvière,BE,50.48657,4.18785,76668,11.247252733556703,BEL,50807.2047084918,0.14939729653515704
Kortrijk,BE,50.82803,3.26487,73879,11.210197434313177,BEL,50807.2047084918,0.14890509086854414
Kortenberg,BE,50.88982,4.54353,17774,9.785548254671442,BEL,50807.2047084918,0.12998147094183168
Kontich,BE,51.13213,4.44706,20290,9.917932716967623,BEL,50807.2047084918,0.13173993420738114
Koksijde,BE,51.11642,2.63772,21957,9.996886816794678,BEL,50807.2047084918,0.13278868178547515
Koersel,BE,51.05909,5.27121,18076,9.802395690974855,BEL,50807.2047084918,0.13020525549588272
Koekelberg,BE,50.86117,4.33136,21984,9.99811568161491,BEL,50807.2047084918,0.13280500480108606
Knokke-Heist,BE,51.35,3.26667,33781,10.42768339524029,BEL,50807.2047084918,0.13851095421066478
Kessel-Lo,BE,50.88549,4.73717,30215,10.316126864392293,BEL,50807.2047084918,0.1370291484297911
Kasterlee,BE,51.24118,4.96651,17765,9.785041797329646,BEL,50807.2047084918,0.12997474366722808
Kapellen,BE,51.31377,4.43539,26410,10.181535869019624,BEL,50807.2047084918,0.13524137577783843
Kalmthout,BE,51.38442,4.47556,17485,9.769155839740836,BEL,50807.2047084918,0.12976373043823225
Jumet,BE,50.4422,4.43745,24510,10.106877275363477,BEL,50807.2047084918,0.13424968542290694
Jette,BE,50.87309,4.33419,52490,10.86839700531273,BEL,50807.2047084918,0.14436495460087836
